[
    {
      "State": "Alabama",
      "Abbreviation": "AL",
      "Counties":[
        "Autauga",
        "Baldwin",
        "Barbour",
        "Bibb",
        "Blount",
        "Bullock",
        "Butler",
        "Calhoun",
        "Chambers",
        "Cherokee",
        "Chilton",
        "Choctaw",
        "Clarke",
        "Clay",
        "Cleburne",
        "Coffee",
        "Colbert",
        "Conecuh",
        "Coosa",
        "Covington",
        "Crenshaw",
        "Cullman",
        "Dale",
        "Dallas",
        "DeKalb",
        "Elmore",
        "Escambia",
        "Etowah",
        "Fayette",
        "Franklin",
        "Geneva",
        "Greene",
        "Hale",
        "Henry",
        "Houston",
        "Jackson",
        "Jefferson",
        "Lamar",
        "Lauderdale",
        "Lawrence",
        "Lee",
        "Limestone",
        "Lowndes",
        "Macon",
        "Madison",
        "Marengo",
        "Marion",
        "Marshall",
        "Mobile",
        "Monroe",
        "Montgomery",
        "Morgan",
        "Perry",
        "Pickens",
        "Pike",
        "Randolph",
        "Russell",
        "Shelby",
        "St. Clair",
        "Sumter",
        "Talladega",
        "Tallapoosa",
        "Tuscaloosa",
        "Walker",
        "Washington",
        "Wilcox",
        "Winston"
        ],
      "Testsite": [
        {
          "Name": "Accordia Health-Bayou",
          "Address": "13833 Tapia Ave, Bayou La Batre, AL 36509",
          "Phone": "(251) 824-8320",
          "Hours": "Call for appointment",
          "County": "Mobile"
        },
        {
          "Name": "Accordia Health-Rockford",
          "Address": "9518 US Hwy 231, Rockford, AL 35163",
          "Phone": "(256) 377-8008",
          "Hours": "Call for appointment",
          "County": "Coosa"
        },
        {
          "Name": "Acton Quick Care Clinic",
          "Address": "2868 Acton Road, Birmingham, AL 35243",
          "Phone": "205-273-9424",
          "Hours": "8:30 AM – 3:30 PM",
          "County": "Jefferson"
        },
        {
          "Name": "Alabama Regional Medical Services (Crestwood Medical Center)",
          "Address": "7001 Crestwood Blvd, Ste. 822, Birmingham, AL 35210",
          "Phone": "(205) 421-9615",
          "Hours": "Call for appointment",
          "County": "Jefferson"
        },
        {
          "Name": "Alabama Regional Medical Services (Ensley Health Services)",
          "Address": "417 19th St., Ensley, Birmingham, AL 35218",
          "Phone": "205-783-9300",
          "Hours": "Call for appointment",
          "County": "Jefferson"
        },
        {
          "Name": "Alabama Regional Medical Services (Metro Health Center-Homeless)",
          "Address": "712 25th St North, Birmingham, AL 35203",
          "Phone": "(205) 407-6900",
          "Hours": "Call for appointment",
          "County": "Jefferson"
        },
        {
          "Name": "Alabama Regional Medical Services (Northern Health Center)",
          "Address": "2817 30th Avenue N, Birmingham, AL 35207",
          "Phone": "205-407-5600",
          "Hours": "8:00 AM - 12:00 PM (Testing) 8:00 AM - 5:00 PM (Clinic)",
          "County": "Jefferson"
        },
        {
          "Name": "American Family Care Clinic-Alabaster",
          "Address": "120 Colonial Promenade, Alabaster, AL 35007",
          "Phone": "205-605-0495",
          "Hours": "8:00 AM - 6:00 PM",
          "County": "Shelby"
        },
        {
          "Name": "American Family Care Clinic-Athens",
          "Address": "1285 Highway 72 East, Athens, AL 35611",
          "Phone": "256-278-3000",
          "Hours": "8:00 AM - 6:00 PM",
          "County": "Limestone"
        },
        {
          "Name": "American Family Care Clinic-Bessemer",
          "Address": "5911 Harris Lane, Bessemer, AL 35022",
          "Phone": "205-461-0038",
          "Hours": "8:00 AM - 6:00 PM",
          "County": "Jefferson"
        },
        {
          "Name": "American Family Care Clinic-Calera",
          "Address": "72 Highway 304, Calera, AL 35040",
          "Phone": "205-319-8000",
          "Hours": "8:00 AM - 6:00 PM",
          "County": "Shelby"
        },
        {
          "Name": "American Family Care Clinic-Cullman",
          "Address": "1841 Cherokee Avenue SW, Cullman, AL 35055",
          "Phone": "256-297-2548",
          "Hours": "8:00 AM - 6:00 PM",
          "County": "Cullman"
        },
        {
          "Name": "American Family Care Clinic-Daphne",
          "Address": "6631 Park Drive, Daphne, AL 36526",
          "Phone": "251-255-2523",
          "Hours": "8:00 AM - 6:00 PM",
          "County": "Baldwin"
        },
        {
          "Name": "American Family Care Clinic-Decatur",
          "Address": "2604 Highway 31 South, Decatur, AL 35603",
          "Phone": "256-445-3100",
          "Hours": "8:00 AM - 6:00 PM",
          "County": "Morgan"
        },
        {
          "Name": "American Family Care Clinic-EastChase (Montgomery)",
          "Address": "2570 Berryhill Road, Montgomery, AL 36117",
          "Phone": "334-323-1330",
          "Hours": "8:00 AM - 6:00 PM",
          "County": "Montgomery"
        },
        {
          "Name": "American Family Care Clinic-Fairhope",
          "Address": "10040-A County Road 48, Fairhope, AL 36526",
          "Phone": "251-220-6780",
          "Hours": "8:00 AM - 6:00 PM",
          "County": "Baldwin"
        },
        {
          "Name": "American Family Care Clinic-Festival Centre (Mobile)",
          "Address": "900 Montlimar Drive, Mobile, AL 36609",
          "Phone": "251-250-1403",
          "Hours": "8:00 AM - 6:00 PM",
          "County": "Mobile"
        },
        {
          "Name": "American Family Care Clinic-Flintridge (Fairfield)",
          "Address": "6554 Aaron Aronov Drive, Fairfield, AL 35064",
          "Phone": "205-786-5022",
          "Hours": "8:00 AM - 6:00 PM",
          "County": "Jefferson"
        },
        {
          "Name": "American Family Care Clinic-Gadsden",
          "Address": "366 East Meighan Boulevard, Gadsden, AL 35903",
          "Phone": "205-485-0983",
          "Hours": "8:00 AM - 6:00 PM",
          "County": "Etowah"
        },
        {
          "Name": "American Family Care Clinic-Gardendale",
          "Address": "919 Odum Road, Gardendale, AL 35071",
          "Phone": "205-631-6834",
          "Hours": "8:00 AM - 6:00 PM",
          "County": "Jefferson"
        },
        {
          "Name": "American Family Care Clinic-Greenville",
          "Address": "101 Stabler Drive",
          "Phone": "(334) 382-0734",
          "Hours": "8:00 AM - 6:00 PM",
          "County": "Butler"
        },
        {
          "Name": "American Family Care Clinic-Greystone (Birmingham)",
          "Address": "5410 Highway 280, Birmingham, AL 35242",
          "Phone": "205-201-7290",
          "Hours": "8:00 AM - 6:00 PM",
          "County": "Shelby"
        },
        {
          "Name": "American Family Care Clinic-Hampton Cove (Owens Cross Roads)",
          "Address": "410 Sutton Road, Owens Cross Roads, AL 35763",
          "Phone": "256-424-8200",
          "Hours": "8:00 AM - 6:00 PM",
          "County": "Madison"
        },
        {
          "Name": "American Family Care Clinic-Hoover (Birmingham)",
          "Address": "1680 Montgomery Highway, Hoover, AL 35216",
          "Phone": "205-979-0888",
          "Hours": "8:00 AM - 6:00 PM",
          "County": "Jefferson"
        },
        {
          "Name": "American Family Care Clinic-Madison",
          "Address": "7559 Highway 72 West, Madison, AL 35758",
          "Phone": "256-562-0850",
          "Hours": "8:00 AM - 6:00 PM",
          "County": "Madison"
        },
        {
          "Name": "American Family Care Clinic-Montclair (Birmingham)",
          "Address": "1652 Montclair Road, Birmingham, AL 35210",
          "Phone": "205-956-9192",
          "Hours": "8:00 AM - 6:00 PM",
          "County": "Jefferson"
        },
        {
          "Name": "American Family Care Clinic-Orange Beach",
          "Address": "25775 Perdido Beach Boulevard Suite E-5, Orange Beach, AL 36561",
          "Phone": "251-250-1402",
          "Hours": "8:00 AM - 6:00 PM",
          "County": "Baldwin"
        },
        {
          "Name": "American Family Care Clinic-Parkway (Birmingham)",
          "Address": "9232 Parkway East, Birmingham, AL 35206",
          "Phone": "205-833-6888",
          "Hours": "8:00 AM - 6:00 PM",
          "County": "Jefferson"
        },
        {
          "Name": "American Family Care Clinic-Pell City",
          "Address": "20 Hazelwood Drive, Pell City, AL 35125",
          "Phone": "205-338-8008",
          "Hours": "8:00 AM - 6:00 PM",
          "County": "St. Clair"
        },
        {
          "Name": "American Family Care Clinic-Prattville",
          "Address": "1965 Cobbs Ford Road, Prattville, AL 36066",
          "Phone": "334-361-7054",
          "Hours": "8:00 AM - 6:00 PM",
          "County": "Autauga"
        },
        {
          "Name": "American Family Care Clinic-Saraland",
          "Address": "1097 Industrial Parkway, Saraland, AL 36571",
          "Phone": "251-250-1519",
          "Hours": "8:00 AM - 6:00 PM",
          "County": "Mobile"
        },
        {
          "Name": "American Family Care Clinic-Taylor Crossing (Montgomery)",
          "Address": "34 Taylor Road, Montgomery, AL 36117",
          "Phone": "334-323-1510",
          "Hours": "8:00 AM - 6:00 PM",
          "County": "Montgomery"
        },
        {
          "Name": "American Family Care Clinic-Tillman's Corner (Mobile)",
          "Address": "5235 Rangeline Service Road South, Suite A, Mobile, AL 36619",
          "Phone": "251-220-7281",
          "Hours": "8:00 AM - 6:00 PM",
          "County": "Mobile"
        },
        {
          "Name": "American Family Care Clinic-Trussville",
          "Address": "5892 Trussville Crossing Parkway, Birmingham, AL 35235",
          "Phone": "205-655-4002",
          "Hours": "8:00 AM - 6:00 PM",
          "County": "Jefferson"
        },
        {
          "Name": "American Family Care Clinic-Tuscaloosa",
          "Address": "9070 Highway 69 South, Tuscaloosa, AL 35405",
          "Phone": "205-772-9500",
          "Hours": "8:00 AM - 6:00 PM",
          "County": "Tuscaloosa"
        },
        {
          "Name": "American Family Care Clinic-Vaughn Road (Montgomery)",
          "Address": "2815 Eastern Boulevard, Montgomery, AL 36116",
          "Phone": "334-323-2050",
          "Hours": "8:00 AM - 6:00 PM",
          "County": "Montgomery"
        },
        {
          "Name": "American Family Care Clinic-Wetumpka",
          "Address": "4452 Highway 231, Wetumpka, AL 36092",
          "Phone": "334-472-3150",
          "Hours": "8:00 AM - 6:00 PM",
          "County": "Elmore"
        },
        {
          "Name": "American Family Care Clinic-Whiteburg (Huntsville)",
          "Address": "8151 Whitesburg Drive, Huntsville, AL 35801",
          "Phone": "256-882-9711",
          "Hours": "8:00 AM - 6:00 PM",
          "County": "Madison"
        },
        {
          "Name": "Autauga County Health Department",
          "Address": "219 N Court St., Prattville, AL 36067",
          "Phone": "334-361-3743",
          "Hours": "1:00 PM - 3:00 PM",
          "County": "Autauga"
        },
        {
          "Name": "Baldwin County Health Department",
          "Address": "PZK Hall, 17933 AL-104 Robertsdale AL 36567",
          "Phone": "251-947-1910",
          "Hours": "8:30 AM - 12:00 PM",
          "County": "Baldwin"
        },
        {
          "Name": "Baptist Health Coronavirus Care Clinic",
          "Address": "2936 Marti Lane, Montgomery, AL 36116",
          "Phone": "334-747-0150",
          "Hours": "7:00 AM - 7:00 PM",
          "County": "Montgomery"
        },
        {
          "Name": "Baptist Health Coronavirus Care Clinic—Prattville ",
          "Address": "350 County Road 4 West, Prattville, 36067",
          "Phone": "334-747-0150",
          "Hours": "8:00 AM - 5:00 PM",
          "County": "Autauga"
        },
        {
          "Name": "Barbour County Health Department",
          "Address": "39 Browder Street          Clayton, AL 36016",
          "Phone": "334-792-9070",
          "Hours": "2:30 PM - 4:30 PM",
          "County": "Barbour"
        },
        {
          "Name": "Bessemer Quick Care Clinic",
          "Address": "727 Memorial Drive, Bessemer, AL  35022",
          "Phone": "205-273-9424",
          "Hours": "8:30 AM -3:30 PM",
          "County": "Jefferson"
        },
        {
          "Name": "Bibb County Health Department",
          "Address": "281 Alexander Ave., Centreville, Al 35042",
          "Phone": "205-926-9702",
          "Hours": "8:00 AM - 8:30 AM",
          "County": "Bibb"
        },
        {
          "Name": "Birmingham Internal Medicine Associates",
          "Address": "7191 Cahaba Valley Road Ste. 300, Birmingham, AL 35242",
          "Phone": "205-995-9909",
          "Hours": "8:00 AM - 4:30 PM M-Th, 8:00 AM - 3:00 PM Fridays",
          "County": "Shelby"
        },
        {
          "Name": "Blount County Health Department",
          "Address": "1001 Lincoln Ave.     Oneonta, AL 35121",
          "Phone": "205-274-2120",
          "Hours": "8:30am - 10:30am",
          "County": "Blount"
        },
        {
          "Name": "Bullock County Health Department",
          "Address": "674 Hicks Industrial Blvd, Union Springs, AL 36089",
          "Phone": "334-738-3030",
          "Hours": " 1:00 PM - 3:00 PM ",
          "County": "Bullock"
        },
        {
          "Name": "Butler County Health Department: NOT TESTING AT THIS TIME",
          "Address": "350 Airport Rd, Greenville, AL 36037",
          "Phone": "(334) 792-9070",
          "Hours": "",
          "County": "Butler"
        },
        {
          "Name": "Cahaba Community Center",
          "Address": "195 Hospital Dr, Centreville, AL 35042",
          "Phone": "205-926-2992",
          "Hours": "8:00 AM - 5:00 PM",
          "County": "Bibb"
        },
        {
          "Name": "Cahaba Medical Care / Marion Health Center",
          "Address": "1303 Washington St., Marion, AL 36756",
          "Phone": "334-247-1006",
          "Hours": "Call for appointment",
          "County": "Marion"
        },
        {
          "Name": "Cahaba Medical Care-(Maplesville drive-thru testing): NOT CURRENTLY TESTING",
          "Address": "9499 Alabama 22, Maplesville, AL 36750",
          "Phone": "205-926-2992",
          "Hours": "8:00 AM - 5:00 PM",
          "County": "Chilton"
        },
        {
          "Name": "Cahaba Medical Care-(Woodstock Raceway drive-thru testing): NOT CURRENTLY TESTING",
          "Address": "20105 US-11, Woodstock, AL 35188",
          "Phone": "205-938-9348",
          "Hours": "8:00 AM - 5:00 PM",
          "County": "Bibb"
        },
        {
          "Name": "Cahaba Medical Care-Bessemer Civic Center: NOT CURRENTLY TESTING",
          "Address": "1130 9th Avenue, SW, Bessemer, AL 35022",
          "Phone": "(205) 277-2358",
          "Hours": "",
          "County": "Jefferson"
        },
        {
          "Name": "Cahaba Medical Care-Marion Health Center",
          "Address": "1303 Washington Street, Marion, AL 36756",
          "Phone": "334-247-1006",
          "Hours": "8:00 AM - 5:00 PM",
          "County": "Perry"
        },
        {
          "Name": "Cahaba Medical Care-West End Health Center",
          "Address": "1308 Tuscaloosa Avenue, Birmingham, AL",
          "Phone": "205-679-6328",
          "Hours": "8:00 AM - 5:00 PM",
          "County": "Jefferson"
        },
        {
          "Name": "Calhoun County Health Department",
          "Address": "3400 McClellan Blvd   Anniston, Al 36201",
          "Phone": "256-237-7523",
          "Hours": "8:30am - 9:30am",
          "County": "Calhoun"
        },
        {
          "Name": "Capstone Cottage",
          "Address": "714 12th Street West, Jasper, AL 35501",
          "Phone": "(205)-724-9001",
          "Hours": "8:00 a.m. - 5:00 p.m.",
          "County": "Walker"
        },
        {
          "Name": "Capstone Rural Health Center- Nauvoo",
          "Address": "156 3rd Avenue, Nauvoo, AL 35578",
          "Phone": "(205)-724-9053",
          "Hours": "8:00 a.m. - 5:00 p.m.",
          "County": "Walker"
        },
        {
          "Name": "Capstone Rural Health Center- Parrish",
          "Address": "5947 Highway 269, Parrish, AL 35580",
          "Phone": "205-832-2848",
          "Hours": "8:00 AM – 4:00 PM (closed from 12:00PM-1:00PM)",
          "County": "Walker"
        },
        {
          "Name": "Capstone Rural Health-Arley",
          "Address": "6638 County Road 41, Arley, AL 35541",
          "Phone": "205-724-3375",
          "Hours": "8:00 AM - 5:00 PM",
          "County": "Winston"
        },
        {
          "Name": "Capstone-Double Springs",
          "Address": "110 Legion Road Ste. B, Double Springs, AL 35553",
          "Phone": "205-832-2848",
          "Hours": "8:00 AM - 4:00 PM",
          "County": "Winston"
        },
        {
          "Name": "CarePlus (Anniston)",
          "Address": "700 Quintard Avenue, Anniston, AL 36201",
          "Phone": "256-236-9400",
          "Hours": "8:00 AM - 4:00 PM",
          "County": "Calhoun"
        },
        {
          "Name": "CarePlus (Fort Payne)",
          "Address": "3000 Gault Avenue, Fort Payne, AL 35967",
          "Phone": "256-697-1012",
          "Hours": "8:00 AM - 4:00 PM",
          "County": "Dekalb"
        },
        {
          "Name": "CarePlus (Huntsville)",
          "Address": "11100 S. Memorial Parkway, Huntsville, aL 35803",
          "Phone": "256-650-4665",
          "Hours": "8:00 AM - 4:00 PM",
          "County": "Madison"
        },
        {
          "Name": "CarePlus (Rainbow City)",
          "Address": "115 W. Grand Avenue, Rainbow City, AL 35906",
          "Phone": "256-442-6400",
          "Hours": "8:00 AM - 4:00 PM",
          "County": "Etowah"
        },
        {
          "Name": "CarePlus Family Medical (Albertville)",
          "Address": "8914 US Highway 431, Albertville, AL 35950",
          "Phone": "256-279-7200",
          "Hours": "8:00 AM - 4:00 PM",
          "County": "Marshall"
        },
        {
          "Name": "Central Alabama Urgent Care",
          "Address": "2391 Highway 78, Suite B, Dora, AL 35062",
          "Phone": "205-255-7052",
          "Hours": "M-F 9:00 AM - 7:00 PM / Sat.-Sun. 9:00 AM - 5:00 PM",
          "County": "Walker"
        },
        {
          "Name": "Central North Alabama Health Services (Athens Family Health Center)",
          "Address": "1005 W Market St, Ste. B, Athens, AL 35611",
          "Phone": "(256) 230-3061",
          "Hours": "Call for appointment",
          "County": "Limestone"
        },
        {
          "Name": "Central North Alabama Health Services (New Market Clinic)",
          "Address": "110 Clinic St, New Market, AL 35761",
          "Phone": "(256) 379-2101",
          "Hours": "Call for appointment",
          "County": "Madison"
        },
        {
          "Name": "Central North Alabama Health Services (Toney Family Health Center)",
          "Address": "8028 Hwy 53, Toney, AL 35773",
          "Phone": "(256) 851-8804",
          "Hours": "Call for appointment",
          "County": "Madison"
        },
        {
          "Name": "Chambers County Health Department",
          "Address": "5 North Medical Park Dr., Valley, AL 36854",
          "Phone": "334-756-0758",
          "Hours": "1:00 PM - 3:00 PM",
          "County": "Chambers"
        },
        {
          "Name": "Cherokee County Health Department",
          "Address": "833 Cedar Bluff Road   Centre, AL 35960",
          "Phone": "256-927-3132",
          "Hours": "8:30am - 9:30am in October; 8:30 AM - 10:30 AM in November",
          "County": "Cherokee"
        },
        {
          "Name": "Chilton County Health Department",
          "Address": "301 Health Center Drive, Clanton, AL",
          "Phone": "205-755-1287",
          "Hours": "9:00 AM - 9:30 AM",
          "County": "Chilton"
        },
        {
          "Name": "Chilton Urgent Care",
          "Address": "1210 7th St S, Clanton, AL 35045",
          "Phone": "(205) 280-0620",
          "Hours": "8:00 AM - 4:00 PM",
          "County": "Chilton"
        },
        {
          "Name": "Choctaw County Health Department",
          "Address": "1001 South Mulberry Ave, Butler, AL 36904",
          "Phone": "(205) 459-4026",
          "Hours": "8:30 AM - 10:30 AM",
          "County": "Choctaw"
        },
        {
          "Name": "Christ Health-Woodlawn",
          "Address": "     5720 1st Avenue South, Birmingham, AL 35212 ",
          "Phone": "205-380-9455",
          "Hours": "8:00 AM - 5:00 PM",
          "County": "Jefferson"
        },
        {
          "Name": "Clarke County Health Department",
          "Address": "22600 Highway 84 Grove Hill, Al. 36451",
          "Phone": "251-275-3772",
          "Hours": "8:30 AM - 10:30 AM",
          "County": "Clarke"
        },
        {
          "Name": "Clay County Health Department",
          "Address": "86892 Hwy 9, Lineville",
          "Phone": "256-396-6421",
          "Hours": "8:30am - 10:00am",
          "County": "Clay"
        },
        {
          "Name": "Cleburne County Health Department",
          "Address": "90 Brockford Road, Heflin",
          "Phone": "256-463-2296",
          "Hours": "8:30 AM - 9:30 AM in October, 8:30 AM - 10:30 AM in November",
          "County": "Cleburne"
        },
        {
          "Name": "Coffee County Health Department",
          "Address": "2841 Neil Metcalf Rd, Enterprise, AL 36330",
          "Phone": "334-792-9070",
          "Hours": "8:30 AM - 10:30 AM",
          "County": "Coffee"
        },
        {
          "Name": "Colbert County Health Dept/Helen Keller Hospital",
          "Address": "1101 Hwy 72 East, Tuscumbia, Al  35674",
          "Phone": "256-460-8932",
          "Hours": "9:30 AM - 3:00 PM",
          "County": "Colbert"
        },
        {
          "Name": "Columbiana Clinic",
          "Address": "22266 Highway 25, Columbiana, AL 35051",
          "Phone": "205-669-3138",
          "Hours": "M-Th 1:00 PM - 4:00 PM / Friday  8:00 AM - 12:00 PM",
          "County": "Shelby"
        },
        {
          "Name": "Compass Urgent Care",
          "Address": "6901 Airport Blvd, Mobile, AL 36608",
          "Phone": "251-634-2273",
          "Hours": "Call for appointment",
          "County": "Mobile"
        },
        {
          "Name": "Conecuh County Health Department",
          "Address": "102 Wild Ave, Evergreen, AL, 36401",
          "Phone": "251-578-1942",
          "Hours": "8:30 AM - 10:30 AM",
          "County": "Conecuh"
        },
        {
          "Name": "COVID Collection Clinic",
          "Address": "500 Hospital Drive, Wetumpka, AL 36092",
          "Phone": "334-514-3713",
          "Hours": "7:00 AM - 7:00 PM",
          "County": "Elmore"
        },
        {
          "Name": "Covington County Health Department",
          "Address": "23989 Alabama Hwy 55, Andalusia AL 36420",
          "Phone": "(334) 792-9070",
          "Hours": "9:30 AM - 11:30 AM",
          "County": "Covington"
        },
        {
          "Name": "Crenshaw County Health Department: NOT TESTING AT THIS TIME",
          "Address": "15 Hospital Drive  Luverne, AL",
          "Phone": "334-792-9070",
          "Hours": "",
          "County": "Crenshaw"
        },
        {
          "Name": "Cullman County Health Department",
          "Address": "601 Logan Avenue SW, Cullman",
          "Phone": "256-734-1030",
          "Hours": "9:00 AM - 11:30 AM",
          "County": "Cullman"
        },
        {
          "Name": "Cullman Regional Screening Site",
          "Address": "1958 Alabama Highway 157, Cullman, AL",
          "Phone": "256-735-5530",
          "Hours": "10:00 AM - 12:00 PM ",
          "County": "Cullman"
        },
        {
          "Name": "Dallas County Health Department",
          "Address": "100 Samuel O Moseley Dr, Selma, AL 36701",
          "Phone": "334-874-2550",
          "Hours": "8:30 AM - 10:30 AM",
          "County": "Dallas"
        },
        {
          "Name": "DCH Regional Medical Center ",
          "Address": "809 University Blvd E, Tuscaloosa, AL 35402",
          "Phone": "None Listed",
          "Hours": "Drive Up",
          "County": "Tuscaloosa"
        },
        {
          "Name": "DeKalb County Health Department",
          "Address": "2401 Calvin Drive SW  Fort Payne, AL 35967",
          "Phone": "256-845-1931",
          "Hours": "8:30am - 10:30am",
          "County": "Dekalb"
        },
        {
          "Name": "DeKalb Regional Medical Center POBs",
          "Address": "421 Medical Center Drive, SW, Fort Payne, AL 35968",
          "Phone": "256-997-2708",
          "Hours": "9:00 AM - 3:30 PM",
          "County": "DeKalb"
        },
        {
          "Name": "Diagnostic and Medical Clinic",
          "Address": "831C Hillcrest Rd., Mobile, AL 36695",
          "Phone": "251-435-1106",
          "Hours": "Call for appointment",
          "County": "Mobile"
        },
        {
          "Name": "Downtown COVID-19 Testing Site",
          "Address": "Corner of University Blvd. and 22nd St. South, Birmingham",
          "Phone": "205-975-1881",
          "Hours": "9:00 AM – 11:15 AM",
          "County": "Jefferson"
        },
        {
          "Name": "Dr. Celeste / Willis Medical Group",
          "Address": "1201 19th St. North, Birmingham, AL 35234",
          "Phone": "(205) 291-8842",
          "Hours": "Call for appointment",
          "County": "Jefferson"
        },
        {
          "Name": "EAMC Employee Health And Wellness Center",
          "Address": "2000 Waverly Parkway, Opelika, AL 36802",
          "Phone": "334-528-SICK",
          "Hours": "Varies based on supplies available and testing appointments needed.",
          "County": "Lee"
        },
        {
          "Name": "EAMC-Lanier",
          "Address": "4800 48th Street, Valley, AL 36854",
          "Phone": "334-528-SICK",
          "Hours": "Varies based on supplies available and testing appointments needed.",
          "County": "Chambers"
        },
        {
          "Name": "Eastdale Mall(Montgomery County Health Department)",
          "Address": "5501 Atlanta Highway, Montgomery, Al",
          "Phone": "(334) 293-6400",
          "Hours": "9 a.m. to 4:30 p.m.",
          "County": "Montgomery"
        },
        {
          "Name": "Elmore County Health Department",
          "Address": "6501 US Hwy 231, Wetumpka, AL 36092",
          "Phone": "334-567-1171",
          "Hours": "1:00 PM - 3:00 PM",
          "County": "Elmore"
        },
        {
          "Name": "Encore Medical Spa and Family Medicine",
          "Address": "1202 Gault Avenue North, Ft. Payne, AL 35967",
          "Phone": "256-273-6290",
          "Hours": "T-W  10:00 AM - 11:00 AM and 2:00 PM - 3:00 PM  / Fri. 2:00 PM - 4:00 PM",
          "County": "Dekalb"
        },
        {
          "Name": "Enterprise Urgent Care",
          "Address": "6582 Boll Weevil Circle, Enterprise, AL 36330",
          "Phone": "334-347-2027",
          "Hours": "M-F 8:00 AM - 6:00 PM  / Sat.-Sun 8:00 AM - 3:00 PM",
          "County": "Coffee"
        },
        {
          "Name": "Escambia County Health Department -Brewton",
          "Address": "1115 Azalea Ave. Brewton, AL 36426",
          "Phone": "334-867-5765",
          "Hours": "9:00 AM - 11:00 AM",
          "County": "Escambia"
        },
        {
          "Name": "Escambia County Health Department-Atmore",
          "Address": "8600 Highway 31 N, Ste 17, Atmore, AL",
          "Phone": "251-368-9188",
          "Hours": "1:00 PM - 3:00 PM",
          "County": "Escambia"
        },
        {
          "Name": "Etowah County Health Department",
          "Address": "709 East Broad Street  Gadsden, Al 35902",
          "Phone": "256-547-6311",
          "Hours": "8:00 AM - 10:00 AM",
          "County": "Etowah"
        },
        {
          "Name": "Express Med",
          "Address": "970 Cox Creek Pkwy, Florence, AL",
          "Phone": "256-760-1655",
          "Hours": "M-F 8:00 AM - 6:00 PM / Sat. 8:00 AM - 4:00 PM",
          "County": "Lauderdale"
        },
        {
          "Name": "Family Health / Citronelle  Clinic",
          "Address": "19250 North Mobile Street, Citronelle, AL 36603",
          "Phone": "251-690-8889",
          "Hours": "Call for appointment",
          "County": "Mobile"
        },
        {
          "Name": "Family Health / Dauphin Island Parkway Health Center",
          "Address": "2601 Dauphin Island Parkway, Mobile, 36605",
          "Phone": "251-690-8889",
          "Hours": "Call for appointment",
          "County": "Mobile"
        },
        {
          "Name": "Family Health / Eight Mile Clinic",
          "Address": "4009 St. Stephens Road, Eight Mile, AL 36613",
          "Phone": "251-690-8889",
          "Hours": "Call for appointment",
          "County": "Mobile"
        },
        {
          "Name": "Family Health / Semmes Clinic",
          "Address": "3810 Wulff Rd. East, Semmes, AL 36575",
          "Phone": "251-690-8889",
          "Hours": "Call for appointment",
          "County": "Mobile"
        },
        {
          "Name": "Family Health / Southwest Mobile Health Center",
          "Address": "5580 Inn Road, Mobile, 36619",
          "Phone": "251-690-8889",
          "Hours": "Call for appointment",
          "County": "Mobile"
        },
        {
          "Name": "Family Health /Mobile County Health Department",
          "Address": "251 North Bayou Street, Mobile, AL 36603",
          "Phone": "251-690-8889",
          "Hours": "Call for appointment",
          "County": ""
        },
        {
          "Name": "Family Health /Women’s and Children’s Health Center",
          "Address": "248 Cox St, Mobile, AL 36604",
          "Phone": "251-690-8889",
          "Hours": "Call for appointment",
          "County": "Mobile"
        },
        {
          "Name": "Family Health/North Mobile Health Center",
          "Address": "950 W. Coy Smith Highway, Mount Vernon, 36560",
          "Phone": "251-690-8889",
          "Hours": "Call for appointment",
          "County": "Mobile"
        },
        {
          "Name": "Fayette County Health Department",
          "Address": "215 1st Ave. NW, Fayette",
          "Phone": "(205) 932-5260",
          "Hours": "8:30 AM - 9:00 AM",
          "County": "Fayette"
        },
        {
          "Name": "First Stop",
          "Address": "206 Stokes St NW, Huntsville, AL 35805",
          "Phone": "",
          "Hours": "11:30 AM - 1:30 PM",
          "County": "Madison"
        },
        {
          "Name": "Franklin County Health Department",
          "Address": "801 Highway 48, Russellville, Ala. 35654",
          "Phone": "(256) 332-2700",
          "Hours": "9:00 AM - 11:00 AM",
          "County": "Franklin"
        },
        {
          "Name": "Franklin Medical Express / Prichard City Hall",
          "Address": "216 E Prichard Ave, Mobile, AL 36610",
          "Phone": "251-444-1122",
          "Hours": "Call for appointment",
          "County": "Mobile"
        },
        {
          "Name": "Franklin Medical Mall (Franklin Mobile Unit)",
          "Address": "1303 Dr. Martin Luther King Jr. Ave., Mobile, Alabama 36603",
          "Phone": "251-444-1122",
          "Hours": "8:30 AM – 4:00 PM",
          "County": "Mobile"
        },
        {
          "Name": "Franklin Primary Health / Gilbertown Medical and Dental Center",
          "Address": "140 Front Street, Ste 4, Gilbertown, AL 36908",
          "Phone": "251-444-1122",
          "Hours": "Call for appointment",
          "County": "Choctaw"
        },
        {
          "Name": "Franklin Primary Health Center / Evergreen Family Medical Center",
          "Address": "316 S. Main Street, Evergreen, Alabama 36401",
          "Phone": "251-444-1122",
          "Hours": "9:30am-3:30pm",
          "County": "Conecuh"
        },
        {
          "Name": "Geneva (TBD)",
          "Address": "TBD",
          "Phone": "334-792-9070",
          "Hours": "8:30am - 10:30am",
          "County": "Geneva"
        },
        {
          "Name": "Greater Mobile Urgent Care",
          "Address": "2350 Schillinger Road, Mobile, AL 36695",
          "Phone": "251-633-0123",
          "Hours": "8:00 AM - 8:00 PM - Monday - Friday /8:00 AM - 4:00 PM Saturday & Sunday",
          "County": "Mobile"
        },
        {
          "Name": "Greene County Health Department",
          "Address": "412 Morrow Ave, Eutaw, AL 35462",
          "Phone": "205-372-9361",
          "Hours": "9:00 AM - 9:30 AM",
          "County": "Greene"
        },
        {
          "Name": "Hale County Health Department",
          "Address": "670 Hall St, Greensboro, AL 36744",
          "Phone": "334-624-3018",
          "Hours": "8:30 AM - 9:00 AM",
          "County": "Hale"
        },
        {
          "Name": "Hale County Hospital ",
          "Address": "508 Greene Street, Greensboro, AL 36744",
          "Phone": "334-507-3815",
          "Hours": "1:00 PM - 5:00 PM",
          "County": "Hale"
        },
        {
          "Name": "Health Services, Inc./Chisholm Family Health Center",
          "Address": "100 East Vandiver Blvd., Montgomery, 36110",
          "Phone": "334-832-4338",
          "Hours": "Call for appointment",
          "County": "Montgomery"
        },
        {
          "Name": "Health Services, Inc./Clanton Family Health Center",
          "Address": "107 Medical Center Drive, Clanton, 35045",
          "Phone": "205-755-3980",
          "Hours": "Call for appointment",
          "County": "Chilton"
        },
        {
          "Name": "Health Services, Inc./Eclectic Family Health Center",
          "Address": "      30 Main Street, Eclectic, AL 36024",
          "Phone": "334-541-2116",
          "Hours": "Call for appointment",
          "County": "Elmore"
        },
        {
          "Name": "Health Services, Inc./Gateway Family Health Center",
          "Address": "2905 E. South Blvd., Montgomery, 36116",
          "Phone": "334-288-0009",
          "Hours": "Call for appointment",
          "County": "Montgomery"
        },
        {
          "Name": "Health Services, Inc./Montevallo Family Health Center",
          "Address": "33 Salem Road, Suite 2, Montevallo, 35115",
          "Phone": "205-851-2010",
          "Hours": "Call for appointment",
          "County": "Shelby"
        },
        {
          "Name": "Health Services, Inc./Montgomery East Family Health Center",
          "Address": "309 St. Lukes Drive, Montgomery, 36117",
          "Phone": "334-356-3608",
          "Hours": "Call for appointment",
          "County": "Montgomery"
        },
        {
          "Name": "Health Services, Inc./Montgomery Primary Healthcare Center",
          "Address": "3058 Mobile Hwy, Montgomery, 36108",
          "Phone": "334-293-6670",
          "Hours": "Call for appointment",
          "County": "Montgomery"
        },
        {
          "Name": "Health Services, Inc./Ramer Family Health Center",
          "Address": "5422 Highway 94 East, Ramer, 36069",
          "Phone": "334-562-3229",
          "Hours": "Call for appointment",
          "County": "Montgomery"
        },
        {
          "Name": "Hinkle Pharmacy / McKesson's Health Mart",
          "Address": "1090 9th Ave SW 110, Bessemer, AL 35022",
          "Phone": "(205) 425-3039",
          "Hours": "10:00 AM - 2:00 PM",
          "County": "Jefferson"
        },
        {
          "Name": "Hokes Bluff Drug Shoppe / McKesson's Health Mart",
          "Address": "5702 US Hwy 278 E, Gadsden, AL 35903",
          "Phone": "(256) 494-1918",
          "Hours": "10:00 AM - 2:00 PM",
          "County": "Etowah"
        },
        {
          "Name": "Hoover Urgent Care Clinic",
          "Address": "2503 Highway 150, Suite 105, Hoover, AL",
          "Phone": "205-987-6801",
          "Hours": "M-F 8a - 5:30p / Sat-Sun 9a - 5p",
          "County": "Jefferson"
        },
        {
          "Name": "Houston County Health Department",
          "Address": "1781 E Cottonwood Road     Dothan, AL 36301",
          "Phone": "334-792-9070",
          "Hours": "8:30 AM - 10:30 AM",
          "County": "Houston"
        },
        {
          "Name": "Huntsville Hospital Urgent Care(Decatur)",
          "Address": "1115 Beltline Rd. SE, Suite 400, Decatur, Al  35601",
          "Phone": "256-898-3004",
          "Hours": "M-F (8 a.m. - 5 p.m.); Sat. (9 a.m. - 3 p.m.); Sun. (1 p.m. - 5 p.m.)",
          "County": "Morgan"
        },
        {
          "Name": "Huntsville Hospital Urgent Care(Florence)",
          "Address": "202 Cox Creek Pkwy., Florence, Al  35630",
          "Phone": "256-349-5496",
          "Hours": "M-F (8 a.m. - 5 p.m.); Sat. (9 a.m. - 3 p.m.); Sun. (1 p.m. - 5 p.m.)",
          "County": "Lauderdale"
        },
        {
          "Name": "Huntsville Hospital Urgent Care(Huntsville)",
          "Address": "900 Bob Wallace Ave. Suite 104, Huntsville, Al  35801",
          "Phone": "256-539-0781",
          "Hours": "M-F (8 a.m. - 8 p.m.); Sat. (9 a.m. - 5 p.m.); Sun. (1 p.m. - 5 p.m.)",
          "County": "Madison"
        },
        {
          "Name": "Huntsville Hospital Urgent Care(Madison)",
          "Address": "300 Hughes Rd, Suite G-2, Madison, Al  35758",
          "Phone": "256-542-0230",
          "Hours": "M-F (8 a.m. - 5 p.m.); Sat. (9 a.m. - 3 p.m.); Sun. (1 p.m. - 5 p.m.)",
          "County": "Madison"
        },
        {
          "Name": "Huntsville Hospital Urgent Care(Muscle Shoals)",
          "Address": "210 Avalon Ave., Muscle Shoals, Al  35661",
          "Phone": "256-826-1001",
          "Hours": "M-F (8 a.m. - 5 p.m.); Sat. (9 a.m. - 3 p.m.); Sun. (1 p.m. - 5 p.m.)",
          "County": "Colbert"
        },
        {
          "Name": "Huntsville: Joe David Stadium Specimen Collection Site",
          "Address": "John Hunt Park, 2151 Airport Road, Huntsville, 35802",
          "Phone": "No Phone",
          "Hours": "9:00 AM - 3:00 PM",
          "County": "Madison"
        },
        {
          "Name": "Infirmary Health - Mobile Infirmary",
          "Address": "166 Mobile Infirmary Blvd, Mobile, AL 36607",
          "Phone": "251-341-2819",
          "Hours": "Call for appointment",
          "County": "Mobile"
        },
        {
          "Name": "Ivy Creek Family Care of Holtville",
          "Address": "4412 Hogan Rd, Deatsville, AL 36022",
          "Phone": "(334) 543-4851",
          "Hours": "M-TH 7:45 AM - 4:00 PM, Friday 7:45 AM - 12:00 PM",
          "County": "Elmore"
        },
        {
          "Name": "Ivy Creek Family Care of Millbrook",
          "Address": "4081 AL 14, Millbrook AL 36054",
          "Phone": "(334) 285-3222",
          "Hours": "8:00 AM - 3:30 PM",
          "County": "Elmore"
        },
        {
          "Name": "Ivy Creek Family Care of Wetumpka",
          "Address": "525 Hospital Dr, Wetumpka, AL 36093",
          "Phone": "(334) 567-5626",
          "Hours": "M-Th 8:00 AM - 5:00 PM, Friday 8:00 AM - 12:00 PM",
          "County": "Elmore"
        },
        {
          "Name": "Ivy Creek Family Care-Troy",
          "Address": "101 Hunters Mountain Parkway, Troy, AL 36079",
          "Phone": "334-465-7056",
          "Hours": "M-F 8:00 AM - 4:00 PM, Saturday 8:00 AM - 12:00 PM",
          "County": "Pike"
        },
        {
          "Name": "Ivy Creek Urgent Care of Tallassee",
          "Address": "2256 Gilmer Ave, Tallassee, AL 36078",
          "Phone": "(334) 283-2542",
          "Hours": "8:00 AM - 4:00 PM",
          "County": "Elmore"
        },
        {
          "Name": "Keeler Memorial Building / Mobile County Health Department",
          "Address": "251 N. Bayou St., Mobile, AL 36603",
          "Phone": "251-410-6243",
          "Hours": "Call for appointment",
          "County": "Mobile"
        },
        {
          "Name": "Lamar County Health Department",
          "Address": "300 Springfield Road Vernon, AL  35592",
          "Phone": "205-695-9195",
          "Hours": "8:00 AM - 8:30 AM",
          "County": "Lamar"
        },
        {
          "Name": "Lauderdale County Health Department",
          "Address": "4112 Chisholm Road, Florence, 35630",
          "Phone": "256-764-7453",
          "Hours": "9:00 AM - 11:30 AM",
          "County": "Lauderdale"
        },
        {
          "Name": "Lawrence County Health Department",
          "Address": "13299 AL Hwy 157, Moulton, AL",
          "Phone": "256-974-1141",
          "Hours": "9:00 AM - 11:30 AM (Hours are 3:00 PM - 4:00 PM on October 22nd)",
          "County": "Lawrence"
        },
        {
          "Name": "Lee County Health Department",
          "Address": "1801 Corporate Dr, Opelika, AL 36801",
          "Phone": "334-745-5765",
          "Hours": "1:00 PM - 3:00 PM",
          "County": "Lee"
        },
        {
          "Name": "Legion Field / Jefferson County Health Department",
          "Address": "400 Graymont Ave. W., Birmingham, AL 35204",
          "Phone": "205-543-2684",
          "Hours": "9:00 AM - 4:00 PM",
          "County": "Jefferson"
        },
        {
          "Name": "Lowndes County Health Department",
          "Address": "507 E Tuskeena St, Hayneville, AL 36040",
          "Phone": "334-548-2564",
          "Hours": "1:00 PM - 3:00 PM",
          "County": "Lowndes"
        },
        {
          "Name": "Lyster Army Health Clinic",
          "Address": "301 Andrews Avenue, Ft. Rucker, 36362",
          "Phone": "1-800-261-7193/option 8",
          "Hours": "7:30 AM – 4:15 PM",
          "County": "Dale"
        },
        {
          "Name": "Macon County Health Department",
          "Address": "812 Hospital Rd, Tuskegee AL 36083",
          "Phone": "334-727-1800",
          "Hours": "1:00 PM - 3:00 PM",
          "County": "Macon"
        },
        {
          "Name": "Madison Medical Associates",
          "Address": "3809 Sullivan Street, Madison, AL 35758",
          "Phone": "256-325-1160",
          "Hours": "M-Th  9:00 AM - 4:00 PM  /  Friday 9:00 AM - 12:00 PM",
          "County": "Madison"
        },
        {
          "Name": "Main Street Family Care (Alexander City)",
          "Address": "2508 US Hwy 280, Alexander City, AL 35010",
          "Phone": "256-414-3013",
          "Hours": "M-F 8:00 AM - 8:00 PM / Sat. - Sun. 9:00 AM - 4:00 PM.",
          "County": "Tallapoosa"
        },
        {
          "Name": "Main Street Family Care (Andalusia)",
          "Address": "508 East 3 Notch Street #100, Andalusia, AL 36420",
          "Phone": "334-362-2015",
          "Hours": "M-F 8:00 AM - 8:00 PM / Sat. - Sun. 9:00 AM - 4:00 PM.",
          "County": "Covington"
        },
        {
          "Name": "Main Street Family Care (Arab)",
          "Address": "1420 N. Brindlee Mountain Pkwy, Suite A-1, Arab, AL 35016",
          "Phone": "256-677-4533",
          "Hours": "M-F 8:00 AM - 8:00 PM / Sat. - Sun. 9:00 AM - 4:00 PM.",
          "County": "Marshall"
        },
        {
          "Name": "Main Street Family Care (Brewton)",
          "Address": "2134 Douglas Avenue, Brewton, AL 36426",
          "Phone": "251-236-4026",
          "Hours": "M-F 8:00 AM - 8:00 PM / Sat. - Sun. 9:00 AM - 4:00 PM.",
          "County": "Escambia"
        },
        {
          "Name": "Main Street Family Care (Centre)",
          "Address": "1925 West Main Street #102, Centre, AL 35960",
          "Phone": "256-677-4552",
          "Hours": "M-F 8:00 AM - 8:00 PM / Sat. - Sun. 9:00 AM - 4:00 PM.",
          "County": "Cherokee"
        },
        {
          "Name": "Main Street Family Care (Eufaula)",
          "Address": "1026 South Eufaula Avenue, Eufaula, AL 36027",
          "Phone": "334-689-4025",
          "Hours": "M-F 8:00 AM - 8:00 PM / Sat. - Sun. 9:00 AM - 4:00 PM.",
          "County": "Barbour"
        },
        {
          "Name": "Main Street Family Care (Millbrook)",
          "Address": "1401 AL Hwy 14, Millbrook AL 36054",
          "Phone": "334-310-6059",
          "Hours": "M-F 8:00 AM - 8:00 PM / Sat. - Sun. 9:00 AM - 4:00 PM.",
          "County": "Autauga"
        },
        {
          "Name": "Main Street Family Care (Mobile)",
          "Address": "6280 Grelot Road, Mobile, AL 36609",
          "Phone": "251-288-5606",
          "Hours": "M-F 8:00 AM - 8:00 PM / Sat. - Sun. 9:00 AM - 9:00 PM",
          "County": "Mobile"
        },
        {
          "Name": "Main Street Family Care (Monroeville)",
          "Address": "1195 South Alabama Avenue, Monroeville, AL 36460",
          "Phone": "251-743-2560",
          "Hours": "M-F 8:00 AM - 8:00 PM / Sat. - Sun. 9:00 AM - 4:00 PM.",
          "County": "Monroe"
        },
        {
          "Name": "Main Street Family Care (Moody)",
          "Address": "2211 Moody Parkway, Moody, AL 35004",
          "Phone": "205-352-2480",
          "Hours": "M-F 8:00 AM - 8:00 PM / Sat. - Sun. 9:00 AM - 4:00 PM.",
          "County": "St. Clair"
        },
        {
          "Name": "Main Street Family Care (Oneonta)",
          "Address": "2022 2nd Avenue East, Oneonta, AL 35121",
          "Phone": "205-625-3650",
          "Hours": "M-F 8:00 AM - 8:00 PM / Sat. - Sun. 9:00 AM - 4:00 PM.",
          "County": "Blount"
        },
        {
          "Name": "Main Street Family Care (Pelham)",
          "Address": "300 Big Mountain Rd., Pelham, AL 35124",
          "Phone": "205-644-8299",
          "Hours": "M-F 8:00 AM - 8:00 PM / Sat.-Sun. 9:00 AM - 9:00 PM",
          "County": "Shelby"
        },
        {
          "Name": "Main Street Family Care (Selma)",
          "Address": "1475 Alabama 14 East, Selma, AL 36703",
          "Phone": "334-526-3240",
          "Hours": "M-F 8:00 AM - 8:00 PM / Sat. - Sun. 9:00 AM - 4:00 PM.",
          "County": "Dallas"
        },
        {
          "Name": "Main Street Family Care (Sylacauga)",
          "Address": "40900 US Highway 280, Sylacauga, AL 35150",
          "Phone": "256-369-0022",
          "Hours": "M-F 8:00 AM - 8:00 PM / Sat. - Sun. 9:00 AM - 4:00 PM.",
          "County": "Talladega"
        },
        {
          "Name": "Main Street Family Care (Talladega)",
          "Address": "837 E. Battle Street, Talladega, AL 35160",
          "Phone": "256-649-8134",
          "Hours": "M-F 8:00 AM - 8:00 PM / Sat. - Sun. 9:00 AM - 4:00 PM.",
          "County": "Talladega"
        },
        {
          "Name": "Main Street Family Care (Valley)",
          "Address": "3306 20th Avenue, Valley, AL 36854",
          "Phone": "334-756-0305",
          "Hours": "M-F 8:00 AM - 8:00 PM / Sat. - Sun. 9:00 AM - 4:00 PM.",
          "County": "Chambers"
        },
        {
          "Name": "Marble City Pharmacy / McKesson's Health Mart",
          "Address": "254 W Fort Williams St., Sylacauga, AL 35150",
          "Phone": "(256) 245-4446",
          "Hours": "9:00 AM - 11:00 AM",
          "County": "Talladega"
        },
        {
          "Name": "Marengo County Health Department",
          "Address": "300 Industrial Dr. Linden, AL 36748",
          "Phone": "334-295-4205",
          "Hours": "8:30 AM - 10:30 AM",
          "County": "Marengo"
        },
        {
          "Name": "Marion County Health Department",
          "Address": "2448 Military Street South, Hamilton",
          "Phone": "205-921-3118",
          "Hours": "9:00 AM - 11:30 AM",
          "County": "Marion"
        },
        {
          "Name": "Marshall County Health Department",
          "Address": "150 Judy Smith Drive, Guntersville",
          "Phone": "256-582-3174",
          "Hours": "1:00 PM-2:00 PM",
          "County": "Marshall"
        },
        {
          "Name": "Med Plus",
          "Address": "2908 Mall Rd., Florence, AL",
          "Phone": "256-767-2702",
          "Hours": "7:00 AM - 7:00 PM",
          "County": "Lauderdale"
        },
        {
          "Name": "Middle Creek Medical Center PC",
          "Address": "4810 Bell Hill Road, Bessemer, Al  35022",
          "Phone": "205-477-3737",
          "Hours": "Mon. - Fri. (8a.m.-5p.m.); Sat.(8a.m. -2p.m.); Sun.(1p.m. - 5p.m.)",
          "County": "Jefferson"
        },
        {
          "Name": "Mobile Civic Center-USA Hospital",
          "Address": "401 Civic Center Dr., Mobile, AL 36602",
          "Phone": "888-872-2650",
          "Hours": "Call for appointment",
          "County": "Mobile"
        },
        {
          "Name": "Monroe County Health Department",
          "Address": "416 Agricultural Drive Monroeville, AL  36460",
          "Phone": "251-575-3109",
          "Hours": "8:30 AM - 10:30 AM",
          "County": "Monroe"
        },
        {
          "Name": "Montgomery County Health Department",
          "Address": "3060 Mobile Hwy, Montgomery, AL 36108",
          "Phone": "334-293-6499",
          "Hours": "2:00 PM - 4:00 PM",
          "County": "Montgomery"
        },
        {
          "Name": "Morgan County Health Department",
          "Address": "3821 Hwy 31 South, Decatur",
          "Phone": "256-353-7021",
          "Hours": "8:30 AM - 11:00 AM",
          "County": "Morgan"
        },
        {
          "Name": "Mostellar Medical Center",
          "Address": "12701 Padget Switch Rd, Mobile, AL",
          "Phone": "251-824-2174",
          "Hours": "Call for appointment",
          "County": "Mobile"
        },
        {
          "Name": "Northeast AL Health Services / Fyffe Health Center",
          "Address": "34617 Alabama Highway 75, Fyffe AL 35971",
          "Phone": "256-623-5242",
          "Hours": "8:00 AM - 5:00 PM",
          "County": "Dekalb"
        },
        {
          "Name": "Northeast AL Health Svcs / Fort Payne Health Center",
          "Address": "3840 Gault Avenue North",
          "Phone": "256-844-4975",
          "Hours": "8:00 AM - 5:00 PM",
          "County": "Dekalb"
        },
        {
          "Name": "Northeast AL Health Svcs / North Sand Mountain Health Care",
          "Address": "29810 Alabama Highway 71, Bryant AL 35958",
          "Phone": "256-597-4114",
          "Hours": "8:00 AM - 5:00 PM",
          "County": "Jackson"
        },
        {
          "Name": "Northeast AL Health Svcs / Scottsboro Health Center",
          "Address": "70 Freedom Ln., Scottsboro, AL 35769",
          "Phone": "256-574-5508",
          "Hours": "8:00 AM - 5:00 PM",
          "County": "Jackson"
        },
        {
          "Name": "Northeast AL Health Svcs / Section Health Center",
          "Address": "60 Main Street North, Section AL 35771",
          "Phone": "256-228-3471",
          "Hours": "8:00 AM - 5:00 PM",
          "County": "Jackson"
        },
        {
          "Name": "Northeast AL Health Svcs / Woodville Health Center",
          "Address": "13624 County Rd 8, Woodville, AL 35776",
          "Phone": "256-776-5615",
          "Hours": "8:00 AM - 5:00 PM",
          "County": "Jackson"
        },
        {
          "Name": "Northeast Alabama Health Services",
          "Address": "309 Taylor Street, Scottsboro, AL 35768",
          "Phone": "256-259-5313",
          "Hours": "8:00 AM - 5:00 PM",
          "County": "Jackson"
        },
        {
          "Name": "Northeast Alabama Health Services / Skyline Health Center",
          "Address": "21680 Alabama Hwy 79, Scottsboro, AL 35768",
          "Phone": "256-587-3050",
          "Hours": "Call for appointment",
          "County": "Jackson"
        },
        {
          "Name": "Norwood Clinic",
          "Address": "339 Walker Chapel Plaza, Suite 115, Fultondale AL 35068",
          "Phone": "205-250-6424",
          "Hours": "M-F 8:00 AM - 9:00 PM / Saturday 10:00 AM - 4:00 PM",
          "County": "Jefferson"
        },
        {
          "Name": "Perry County Health Department-Marion",
          "Address": "1748 South Washington St., Marion, Alabama 36756",
          "Phone": "334-683-6153",
          "Hours": "8:30 AM - 9:00 AM",
          "County": "Perry"
        },
        {
          "Name": "Pickens County Health Department",
          "Address": "80 William E. Hill Drive  Carrollton, Al. 35447",
          "Phone": "205-367-8157",
          "Hours": "8:00 AM - 8:30 AM",
          "County": "Pickens"
        },
        {
          "Name": "Pike Count Health Department / NOT TESTING AT THIS TIME",
          "Address": "900 S. Franklin Dr., Troy, AL 36081",
          "Phone": "334-792-9070",
          "Hours": "",
          "County": "Pike"
        },
        {
          "Name": "Pike Internal Medicine",
          "Address": "1350 Highway 231, Troy AL 36081",
          "Phone": "334-566-1270",
          "Hours": "M-Th  8:00 AM - 5:00 PM / Fri. 8:00 AM - 12:00 PM",
          "County": "Pike"
        },
        {
          "Name": "QC Wellness Pharmacy and QuickCare",
          "Address": "7500 Highway 72 West, Madison, AL 35758",
          "Phone": "256-964-8338",
          "Hours": "M-Th  8:00 AM - 6:00 PM / Fri. 9:00 AM - 5:00 PM",
          "County": "Madison"
        },
        {
          "Name": "Quality of Life Health Complex",
          "Address": "1411 Piedmont Cutoff, Gadsden AL 35903",
          "Phone": "256-492-0131",
          "Hours": "Call for appointment",
          "County": "Etowah"
        },
        {
          "Name": "Quality of Life Health Services / Chambers Quality Health Care",
          "Address": "404 9th Ave SW, Lafayette, AL 36862",
          "Phone": "334-864-8659",
          "Hours": "Call for appointment",
          "County": "Chambers"
        },
        {
          "Name": "Quality of Life Health Services / Talladega Quality Health Care",
          "Address": "110 Spring Street North, Talladega, AL 35160",
          "Phone": "256-315-1697",
          "Hours": "Call for appointment",
          "County": "Talladega"
        },
        {
          "Name": "Quality of Life Health Svcs / Anniston Quality Health Care",
          "Address": "1316 Noble St, Anniston, AL 36201",
          "Phone": "256-236-0221",
          "Hours": "Call for appointment",
          "County": "Calhoun"
        },
        {
          "Name": "Quality of Life Health Svcs / Calhoun Quality Health Care",
          "Address": "601 Leighton Ave, Anniston, AL 36201",
          "Phone": "256-741-9455",
          "Hours": "Call for appointment",
          "County": "Calhoun"
        },
        {
          "Name": "Quality of Life Health Svcs / Cherokee Quality Health Care",
          "Address": "4055 Hwy 9, Ste F, Cedar Bluff, AL 35959",
          "Phone": "256-779-6057",
          "Hours": "Call for appointment",
          "County": "Cherokee"
        },
        {
          "Name": "Quality of Life Health Svcs / Cleburne Quality Health Care",
          "Address": "64 Giles St, Heflin, AL 36264",
          "Phone": "256-463-2021",
          "Hours": "Call for appointment",
          "County": "Cleburne"
        },
        {
          "Name": "Quality of Life Health Svcs / Cullman Quality Health Care",
          "Address": "2016 Main Ave SW, Cullman, AL 35055",
          "Phone": "256-775-0230",
          "Hours": "Call for appointment",
          "County": "Cullman"
        },
        {
          "Name": "Quality of Life Health Svcs / Roberto O. Watts Medical Center",
          "Address": "1020 Tuscaloosa Ave, Gadsden, AL 35901",
          "Phone": "256-546-4606",
          "Hours": "Call for appointment",
          "County": "Etowah"
        },
        {
          "Name": "Quality of Life Health Svcs / Susie E. Allen Health Center",
          "Address": "1502 11th Ave, Phenix City, AL 36867",
          "Phone": "334-560-5393",
          "Hours": "Call for appointment",
          "County": "Russell"
        },
        {
          "Name": "Quality of Life Health Svcs / Tuskegee Quality Health Care",
          "Address": "1201 Notasulga Rd, Tuskegee, AL 36083",
          "Phone": "334-727-7211",
          "Hours": "Call for appointment",
          "County": "Macon"
        },
        {
          "Name": "Quality of Life Health Svcs / W.T. Scruggs Medical Center",
          "Address": "4350 Cleveland Ave, Altoona, AL 35990",
          "Phone": "205-589-6361",
          "Hours": "Call for appointment",
          "County": "Etowah"
        },
        {
          "Name": "Quest Diagnostics and Walmart-Adamsville",
          "Address": "243 Hackworth Road, Adamsville, AL 35214 (Walmart Parking Lot)",
          "Phone": "866-448-7719",
          "Hours": "9:00 AM - 4:00 PM *Weather Permitting",
          "County": "Jefferson"
        },
        {
          "Name": "Quest Diagnostics and Walmart-Montgomery",
          "Address": "6495 Atlanta Highway, Montgomery, AL 36117 (Walmart Parking Lot)",
          "Phone": "866-448-7719",
          "Hours": "9:00 AM - 4:00 PM, weather permitting",
          "County": "Montgomery"
        },
        {
          "Name": "QuickCare Urgent Care",
          "Address": "202 Governor's Drive, Huntsville, AL 35801",
          "Phone": "256-517-8317",
          "Hours": "M-F  8:00 AM - 6:00 PM / Sat. 9:00 AM - 5:00 PM",
          "County": "Madison"
        },
        {
          "Name": "Randolph County Health Department",
          "Address": "320 Main Street, Roanoke, AL 36274",
          "Phone": "334-863-8981",
          "Hours": "1:00pm",
          "County": "Randolph"
        },
        {
          "Name": "Regional Medical Center Clinic",
          "Address": "300 North College Street, Greenville, AL",
          "Phone": "334-382-2681",
          "Hours": "8:00 AM - 4:00 PM",
          "County": "Butler"
        },
        {
          "Name": "River Region Wellness Center: NOT TESTING AT THIS TIME",
          "Address": "1765 Plum St, Montgomery, AL 36107",
          "Phone": "334-420-8620",
          "Hours": "",
          "County": "Montgomery"
        },
        {
          "Name": "RMC Health System Drive-Thru Screening Site",
          "Address": "230 East Tenth Street, Anniston, Alabama 36207",
          "Phone": "256-235-5600 ",
          "Hours": "8:30 AM - 4:30 PM or until appointments are all handled",
          "County": "Calhoun"
        },
        {
          "Name": "RMCCA Clinic of Georgiana",
          "Address": "125 Church Street, Georgiana, AL",
          "Phone": "334-376-2291",
          "Hours": "8:00 AM - 4:00 PM",
          "County": "Butler"
        },
        {
          "Name": "Ross Bridge Medical Center",
          "Address": "3635 Market Street, Hoover, AL 35226",
          "Phone": "205-92COVID",
          "Hours": "8:00 AM - 5:00 PM",
          "County": "Jefferson"
        },
        {
          "Name": "Rural Health Medical Program / Dallas County Health Center",
          "Address": "228 Selma Avenue, Selma, 36701",
          "Phone": "334-877-1490",
          "Hours": "Call for appointment",
          "County": "Dallas"
        },
        {
          "Name": "Rural Health Medical Program / Enterprise Children's Center & Family Medicine",
          "Address": "105 East Watts St, Enterprise, AL 36330",
          "Phone": "334-393-5437 or 800-942-9636",
          "Hours": "Call for appointment",
          "County": "Coffee"
        },
        {
          "Name": "Rural Health Medical Program / Marion Health Center",
          "Address": "1310 Washington St, Marion, AL 36756",
          "Phone": "334-683-2073",
          "Hours": "Call for appointment",
          "County": "Perry"
        },
        {
          "Name": "Rural Health Medical Program / Pine Apple Health Center",
          "Address": "867 Co Rd 59, Pine Apple, AL 36768",
          "Phone": "251-746-2197",
          "Hours": "Call for appointment",
          "County": "Wilcox"
        },
        {
          "Name": "Rural Health Medical Program / Thomaston Health Center",
          "Address": "111 Main St, Thomaston, AL 36783",
          "Phone": "334-627-3497",
          "Hours": "Call for appointment",
          "County": "Marengo"
        },
        {
          "Name": "Rural Health Medical Program / Yellow Bluff Health Center",
          "Address": "2210 Hwy 221, Camden, AL 36726",
          "Phone": "334-682-5772",
          "Hours": "Call for appointment",
          "County": "Wilcox"
        },
        {
          "Name": "Russell County Health Department",
          "Address": "1850 Crawford Rd, Phenix City, AL",
          "Phone": "334-297-0251",
          "Hours": "1:00 PM - 3:00 PM",
          "County": "Russell"
        },
        {
          "Name": "Salvation Army",
          "Address": "305 Seminole Dr, Huntsville, AL",
          "Phone": "",
          "Hours": "11:30 AM - 1:30 PM",
          "County": "Madison"
        },
        {
          "Name": "Shelby County Health Department",
          "Address": "200 County Services Dr  Pelham, Al 35124",
          "Phone": "205-664-2470",
          "Hours": "8:00am - 9:30am",
          "County": "Shelby"
        },
        {
          "Name": "Skyline Health Center",
          "Address": "21680 Alabama Highway 79, Scottsboro, AL 35768",
          "Phone": "256-587-3050",
          "Hours": "8:00 AM - 5:00 PM",
          "County": "Jackson"
        },
        {
          "Name": "Snider's Discount Pharmacy / McKesson's Health Mart",
          "Address": "15582 Hwy 280 Ste. 100, Chelsea, AL 35043",
          "Phone": "(205) 678-3899",
          "Hours": "M-F 8:00 AM - 5:00 PM, Sat. 8:00 AM - 12:00 PM",
          "County": "Shelby"
        },
        {
          "Name": "Southeast Alabama Rural Health Associates / Abbeville Family Health Center",
          "Address": "615 Ozark Rd, Abbeville, AL 36310",
          "Phone": "334-585-1171",
          "Hours": "Call for appointment",
          "County": "Henry"
        },
        {
          "Name": "Southeast Alabama Rural Health Associates / Dozier Family Health Center",
          "Address": "18131 Dozier Hwy, Dozier AL 36028",
          "Phone": "334-496-3521 or 800-246-2011",
          "Hours": "Call for appointment",
          "County": "Crenshaw"
        },
        {
          "Name": "Southeast Alabama Rural Health Associates / Eufaula Internal Medicine",
          "Address": "23 Veterans Boulevard, Eufaula, Al. 36027",
          "Phone": "334-687-8051",
          "Hours": "Call for appointment",
          "County": "Barbour"
        },
        {
          "Name": "Southeast Alabama Rural Health Associates / Geneva Family Health Center",
          "Address": "100 West Lake Professional Park, Ste 1, Geneva, AL 36340",
          "Phone": "334-684-8905",
          "Hours": "Call for appointment",
          "County": "Geneva"
        },
        {
          "Name": "Southeast Alabama Rural Health Associates / Newton Family Health Center",
          "Address": "193 Oates Dr, Newton, AL 36352",
          "Phone": "334-299-3592 or 800-944-7121",
          "Hours": "Call for appointment",
          "County": "Dale"
        },
        {
          "Name": "Southeast Alabama Rural Health Associates / SARHA Doctors Center-Troy",
          "Address": "1412 Elba Hwy, Troy AL 36079",
          "Phone": "334-566-8822 or 800 -309-1811",
          "Hours": "Call for appointment",
          "County": "Pike"
        },
        {
          "Name": "Southeast Alabama Rural Health Associates / Slocomb Family Health Center",
          "Address": "162 South Dalton St, Slocomb, AL 36375",
          "Phone": "334-886-3023 or 800-686-7302",
          "Hours": "Call for appointment",
          "County": "Geneva"
        },
        {
          "Name": "Southeast Alabama Rural Health Associates/Clayton Family Health Center ",
          "Address": "7 Western Bypass, Clayton, AL 36016",
          "Phone": "334-775-3235 or 800-944-3123",
          "Hours": "Call for appointment",
          "County": "Barbour"
        },
        {
          "Name": "Southern Immediate Care-Anniston",
          "Address": "4100 McClellan Blvd, Anniston, AL",
          "Phone": "256-568-8818",
          "Hours": "8:00 AM - 8:00 PM",
          "County": "Calhoun"
        },
        {
          "Name": "Southern Immediate Care-Attalla",
          "Address": "956 Gilbert Ferry Rd., SE, Attalla, Al  35954",
          "Phone": "256-568-8818",
          "Hours": "M-F: 8:00 a.m. - 6:00 p.m. / Sat-Sun 8:00 AM-2:00 PM",
          "County": "Etowah"
        },
        {
          "Name": "Southern Immediate Care-Heflin",
          "Address": "150 Tompkins Street, Heflin, AL",
          "Phone": "256-568-8818",
          "Hours": "M-F: 8:00 a.m. - 5:00 p.m. / Sat-Sun 9:00 AM-1:00 PM",
          "County": "Cleburne"
        },
        {
          "Name": "St. Clair County Health Department",
          "Address": "1175 23rd Street N, Pell City, AL 35125",
          "Phone": "205-338-3357",
          "Hours": "8:30 AM - 10:30 AM",
          "County": "St. Clair"
        },
        {
          "Name": "Sumter County Health Department",
          "Address": "1121 N. Washington Street, Livingston, AL",
          "Phone": "205-652-7972",
          "Hours": "9:00 AM - 9:30 AM",
          "County": "Sumter"
        },
        {
          "Name": "Super Bee Pharmacy / McKesson's Health Mart",
          "Address": "3354 Rainbow Dr., Rainbow City, AL 35906",
          "Phone": "(256) 442-2592",
          "Hours": "10:00 AM - 4:00 PM",
          "County": "Etowah"
        },
        {
          "Name": "Talladega County Health Department/Sylacauga ",
          "Address": "311 North Elm Street, Sylacauga, 35150",
          "Phone": "256-249-3807",
          "Hours": "8:30am - 10:30am",
          "County": "Talladega"
        },
        {
          "Name": "Talladega County Health Department/Talladega ",
          "Address": "1004 South Street E, Talladega, 35160",
          "Phone": "256-362-2593",
          "Hours": "8:30am - 10:30am",
          "County": "Talladega"
        },
        {
          "Name": "Tallapoosa County Health Department",
          "Address": "2078 Sportplex Blvd, Alexander City AL 35010",
          "Phone": "256-329-0531",
          "Hours": "1:00 PM - 3:00 PM",
          "County": "Tallapoosa"
        },
        {
          "Name": "Thrive Alabama COVID-19 Testing",
          "Address": "600 St. Clair Ave, Huntsville, AL 35801",
          "Phone": "256-536-4700",
          "Hours": "10:00 AM - 1:00 PM",
          "County": "Madison"
        },
        {
          "Name": "Thrive Urgent Care",
          "Address": "3500 Cloverdale Road, Florence, AL",
          "Phone": "256-284-7706",
          "Hours": "M-F 8:00 AM - 8:00 PM / Sat. 8:00 AM - 6:00 PM / Sun. 2:00 PM - 6:00 PM",
          "County": "Lauderdale"
        },
        {
          "Name": "Troy Regional Medical Center",
          "Address": "1330 Highway 231 South, Troy, AL 36081",
          "Phone": "334-670-5409",
          "Hours": "24/7",
          "County": "Pike"
        },
        {
          "Name": "Trussville Urgent Care",
          "Address": "1960 Gadsden Highway, Trussville, 35235",
          "Phone": "205-655-1016",
          "Hours": "9:00 AM - 4:00 PM",
          "County": "Jefferson"
        },
        {
          "Name": "TrustCare",
          "Address": "1337 Montclair Road Birmingham, AL 35210",
          "Phone": "(205) 203-8226",
          "Hours": "Clinic: Monday - Friday: 9AM - 5PM; Telehealth: Monday-Friday: 8AM - 6PM",
          "County": "Jefferson"
        },
        {
          "Name": "Tuscaloosa Health Department",
          "Address": "2350 Hargrove Road E, Tuscaloosa, AL  35405",
          "Phone": "205-562-6900",
          "Hours": "8:00 AM - 8:30 AM",
          "County": "Tuscaloosa"
        },
        {
          "Name": "UAB Hospital-Highlands parking deck",
          "Address": "1130 12th Street South, Birmingham, AL 35205",
          "Phone": "205-975-1881",
          "Hours": "8:00 AM - 2:30 PM",
          "County": "Jefferson"
        },
        {
          "Name": "United Doctor's Family Medical Center-Boaz",
          "Address": "1860 US Highway 431 N, Boaz, AL 35957",
          "Phone": "256-840-8181",
          "Hours": "8:00 AM - 3:00 PM",
          "County": "Marshall"
        },
        {
          "Name": "United Doctors Family Medical Center-Altoona",
          "Address": "7130 6th Ave, Altoona, Alabama 35952",
          "Phone": "205-589-1092",
          "Hours": "Call for appointment",
          "County": "Etowah"
        },
        {
          "Name": "Urgent Care for Children - Birmingham",
          "Address": "500 Cahaba Park Circle, Suite 100, Birmingham, AL 35242",
          "Phone": "205-848-2273",
          "Hours": "2:00 PM - 10:00 PM Monday - Friday / 8:00 AM - 6:00 PM Weekends",
          "County": "Jefferson"
        },
        {
          "Name": "Urgent Care for Children - Huntsville",
          "Address": "2785 Carl T Jones Dr SE, Huntsville, AL 35802",
          "Phone": "(256) 964-9682",
          "Hours": "Mon - Fri: 2:00 PM - 10:00 PM / 8:00 AM - 6:00 PM Weekends",
          "County": "Madison"
        },
        {
          "Name": "Urgent Care for Children - Madison",
          "Address": "8490 Highway 72 West, Suite 100, Madison, AL 35758",
          "Phone": "256-724-3587",
          "Hours": "12:00 PM - 8:00 PM Monday - Friday / 8:00 AM - 6:00 PM Weekends",
          "County": "Madison"
        },
        {
          "Name": "Urgent Care for Children - Trussville",
          "Address": "117 North Chalkville Road, Trussville, AL 35173",
          "Phone": "205-848-2273",
          "Hours": "12:00 PM - 8:00 PM Monday - Friday / 8:00 AM - 6:00 PM Weekends",
          "County": "Jefferson"
        },
        {
          "Name": "Urgent Care for Children - Tuscaloosa",
          "Address": "4700 Rice Mine Road Northeast",
          "Phone": "205-614-5628",
          "Hours": "2:00 PM - 10:00 PM Monday - Friday / 10:00 AM - 8:00 PM Weekends",
          "County": "Tuscaloosa"
        },
        {
          "Name": "Urgent Care for Children - Vestavia",
          "Address": "520 Montgomery Highway, Vestavia, AL 35216",
          "Phone": "205-848-2273",
          "Hours": "12:00 PM - 8:00 PM Monday - Friday / 8:00 AM - 6:00 PM Weekends",
          "County": "Jefferson "
        },
        {
          "Name": "Waddell Family Medicine",
          "Address": "902 Washington St., Athens, AL",
          "Phone": "256-216-9777",
          "Hours": "8:00 AM - 4:00 PM",
          "County": "Limestone"
        },
        {
          "Name": "Waldrop Stadium-Homewood",
          "Address": "266 Snow Dr, Birmingham, AL 35209",
          "Phone": "(205) 95-COVID (205) 952-0843",
          "Hours": "8:00 AM - 12:00 PM",
          "County": "Jefferson"
        },
        {
          "Name": "Walgreens",
          "Address": "4501 Valleydale Road, Birmingham, AL 35242",
          "Phone": "(205) 995-0403",
          "Hours": "9:00 AM - 5:00 PM",
          "County": "Shelby"
        },
        {
          "Name": "Walker County Health Department",
          "Address": "705 20th Avenue East, Jasper AL",
          "Phone": "205-221-9775",
          "Hours": "8:00 AM - 8:30 AM",
          "County": "Walker"
        },
        {
          "Name": "Washington County Health Department",
          "Address": "14900 St Stephens Ave, Chatom, AL, 36518",
          "Phone": "251-847-2245",
          "Hours": "8:30 AM - 10:30 AM",
          "County": "Washington"
        },
        {
          "Name": "Wetumpka Medical Center",
          "Address": "76297 Tallassee Hwy, Wetumpka, 36092",
          "Phone": "334-544-4353",
          "Hours": "7:00 AM - 7:00 PM",
          "County": "Elmore"
        },
        {
          "Name": "Wetumpka Urgent Care",
          "Address": "11 Cambridge Dr, Wetumpka, AL 36093",
          "Phone": "(334) 567-8633",
          "Hours": "M-F 8:00 AM - 7:00 PM, Sunday 8:00 AM - 4:00 PM",
          "County": "Elmore"
        },
        {
          "Name": "Whitfield Regional Hospital Coronavirus Collection Site ",
          "Address": "105 U.S. Highway 80 East ",
          "Phone": "No Phone",
          "Hours": "9:00 AM - 1:00 PM",
          "County": "Marengo"
        },
        {
          "Name": "Wilcox County Health Department",
          "Address": "107 Union St, Camden, AL, 36726",
          "Phone": "334-682-4515",
          "Hours": "8:30 AM - 10:30 AM",
          "County": "Wilcox"
        }
       ]
    },
    {
        "State": "Alaska",
        "Abbreviation": "AK",
        "Counties":[
          "Aleutians East Borough",
          "Aleutians West Census Counties",
          "Anchorage",
          "Bethel Census Counties",
          "Bristol Bay Borough",
          "Denali Borough",
          "Dillingham Census Counties",
          "Fairbanks North Star Borough",
          "Haines Borough",
          "Juneau City and Borough",
          "Kenai Peninsula Borough",
          "Ketchikan Gateway Borough",
          "Kodiak Island Borough",
          "Kusilvak Census Counties",
          "Lake and Peninsula Borough",
          "Matanuska-Susitna Borough",
          "Nome Census Counties",
          "North Slope Borough",
          "Northwest Arctic Borough",
          "Petersburg Borough",
          "Prince of Wales-Hyder Census Counties",
          "Sitka City and Borough",
          "Skagway Municipality",
          "Southeast Fairbanks Census Counties",
          "Unknown",
          "Valdez-Cordova Census Counties",
          "Wrangell City and Borough",
          "Yukon-Koyukuk Census Counties"
          ],
        "Testsite":[]
    
    },
    {
        "State": "Arizona",
        "Abbreviation": "AZ",
        "Counties":[
          "Apache",
          "Cochise",
          "Coconino",
          "Gila",
          "Graham",
          "Greenlee",
          "La Paz",
          "Maricopa",
          "Mohave",
          "Navajo",
          "Pima",
          "Pinal",
          "Santa Cruz",
          "Yavapai",
          "Yuma"
          ],
        "Testsite":[]
     
    },
    {
        "State": "Arkansas",
        "Abbreviation": "AR",
        "Counties":[
          "Arkansas",
          "Ashley",
          "Baxter",
          "Benton",
          "Boone",
          "Bradley",
          "Calhoun",
          "Carroll",
          "Chicot",
          "Clark",
          "Clay",
          "Cleburne",
          "Cleveland",
          "Columbia",
          "Conway",
          "Craighead",
          "Crawford",
          "Crittenden",
          "Cross",
          "Dallas",
          "Desha",
          "Drew",
          "Faulkner",
          "Franklin",
          "Fulton",
          "Garland",
          "Grant",
          "Greene",
          "Hempstead",
          "Hot Spring",
          "Howard",
          "Independence",
          "Izard",
          "Jackson",
          "Jefferson",
          "Johnson",
          "Lafayette",
          "Lawrence",
          "Lee",
          "Lincoln",
          "Little River",
          "Logan",
          "Lonoke",
          "Madison",
          "Marion",
          "Miller",
          "Mississippi",
          "Monroe",
          "Montgomery",
          "Nevada",
          "Newton",
          "Ouachita",
          "Perry",
          "Phillips",
          "Pike",
          "Poinsett",
          "Polk",
          "Pope",
          "Prairie",
          "Pulaski",
          "Randolph",
          "Saline",
          "Scott",
          "Searcy",
          "Sebastian",
          "Sevier",
          "Sharp",
          "St. Francis",
          "Stone",
          "Union",
          "Unknown",
          "Van Buren",
          "Washington",
          "White",
          "Woodruff",
          "Yell"
          ],
        "Testsite":[]
       
    },
    {
        "State": "California",
        "Abbreviation": "CA",
        "Counties":[
          "Alameda",
          "Alpine",
          "Amador",
          "Butte",
          "Calaveras",
          "Colusa",
          "Contra Costa",
          "Del Norte",
          "El Dorado",
          "Fresno",
          "Glenn",
          "Humboldt",
          "Imperial",
          "Inyo",
          "Kern",
          "Kings",
          "Lake",
          "Lassen",
          "Los Angeles",
          "Madera",
          "Marin",
          "Mariposa",
          "Mendocino",
          "Merced",
          "Modoc",
          "Mono",
          "Monterey",
          "Napa",
          "Nevada",
          "Orange",
          "Placer",
          "Plumas",
          "Riverside",
          "Sacramento",
          "San Benito",
          "San Bernardino",
          "San Diego",
          "San Francisco",
          "San Joaquin",
          "San Luis Obispo",
          "San Mateo",
          "Santa Barbara",
          "Santa Clara",
          "Santa Cruz",
          "Shasta",
          "Sierra",
          "Siskiyou",
          "Solano",
          "Sonoma",
          "Stanislaus",
          "Sutter",
          "Tehama",
          "Trinity",
          "Tulare",
          "Tuolumne",
          "Ventura",
          "Yolo",
          "Yuba"
          ],
        "Testsite":[]
       
    },
    {
        "State": "Colorado",
        "Abbreviation": "CO",
        "Counties":[
          "Adams",
          "Alamosa",
          "Arapahoe",
          "Archuleta",
          "Baca",
          "Bent",
          "Boulder",
          "Broomfield",
          "Chaffee",
          "Cheyenne",
          "Clear Creek",
          "Conejos",
          "Costilla",
          "Crowley",
          "Custer",
          "Delta",
          "Denver",
          "Dolores",
          "Douglas",
          "Eagle",
          "Elbert",
          "El Paso",
          "Fremont",
          "Garfield",
          "Gilpin",
          "Grand",
          "Gunnison",
          "Hinsdale",
          "Huerfano",
          "Jackson",
          "Jefferson",
          "Kiowa",
          "Kit Carson",
          "Lake",
          "La Plata",
          "Larimer",
          "Las Animas",
          "Lincoln",
          "Logan",
          "Mesa",
          "Mineral",
          "Moffat",
          "Montezuma",
          "Montrose",
          "Morgan",
          "Otero",
          "Ouray",
          "Park",
          "Phillips",
          "Pitkin",
          "Prowers",
          "Pueblo",
          "Rio Blanco",
          "Rio Grande",
          "Routt",
          "Saguache",
          "San Juan",
          "San Miguel",
          "Sedgwick",
          "Summit",
          "Teller",
          "Washington",
          "Weld",
          "Yuma"
          ],
        "Testsite":[]
       
    },
    {
        "State": "Connecticut",
        "Abbreviation": "CT",
        "Counties":[
          "Fairfield",
          "Hartford",
          "Litchfield",
          "Middlesex",
          "New Haven",
          "New London",
          "Tolland",
          "Windham"
          ],
        "Testsite":[]
    },
    {
        "State": "Delaware",
        "Abbreviation": "DE",
        "Counties":[
          "Kent",
          "New Castle",
          "Sussex"
          ],
        "Testsite":[]
    },
    {
        "State": "Florida",
        "Abbreviation": "FL",
        "Counties":[
          "Alachua",
          "Baker",
          "Bay",
          "Bradford",
          "Brevard",
          "Broward",
          "Calhoun",
          "Charlotte",
          "Citrus",
          "Clay",
          "Collier",
          "Columbia",
          "DeSoto",
          "Dixie",
          "Duval",
          "Escambia",
          "Flagler",
          "Franklin",
          "Gadsden",
          "Gilchrist",
          "Glades",
          "Gulf",
          "Hamilton",
          "Hardee",
          "Hendry",
          "Hernando",
          "Highlands",
          "Hillsborough",
          "Holmes",
          "Indian River",
          "Jackson",
          "Jefferson",
          "Lafayette",
          "Lake",
          "Lee",
          "Leon",
          "Levy",
          "Liberty",
          "Madison",
          "Manatee",
          "Marion",
          "Martin",
          "Miami-Dade",
          "Monroe",
          "Nassau",
          "Okaloosa",
          "Okeechobee",
          "Orange",
          "Osceola",
          "Palm Beach",
          "Pasco",
          "Pinellas",
          "Polk",
          "Putnam",
          "Santa Rosa",
          "Sarasota",
          "Seminole",
          "St. Johns",
          "St. Lucie",
          "Sumter",
          "Suwannee",
          "Taylor",
          "Union",
          "Unknown",
          "Volusia",
          "Wakulla",
          "Walton",
          "Washington"
          ],
        "Testsite":[]
        
    },
    {
        "State": "Georgia",
        "Abbreviation": "GA",
        "Counties":[
          "Appling",
          "Atkinson",
          "Bacon",
          "Baker",
          "Baldwin",
          "Banks",
          "Barrow",
          "Bartow",
          "Ben Hill",
          "Berrien",
          "Bibb",
          "Bleckley",
          "Brantley",
          "Brooks",
          "Bryan",
          "Bulloch",
          "Burke",
          "Butts",
          "Calhoun",
          "Camden",
          "Candler",
          "Carroll",
          "Catoosa",
          "Charlton",
          "Chatham",
          "Chattahoochee",
          "Chattooga",
          "Cherokee",
          "Clarke",
          "Clay",
          "Clayton",
          "Clinch",
          "Cobb",
          "Coffee",
          "Colquitt",
          "Columbia",
          "Cook",
          "Coweta",
          "Crawford",
          "Crisp",
          "Dade",
          "Dawson",
          "Decatur",
          "DeKalb",
          "Dodge",
          "Dooly",
          "Dougherty",
          "Douglas",
          "Early",
          "Echols",
          "Effingham",
          "Elbert",
          "Emanuel",
          "Evans",
          "Fannin",
          "Fayette",
          "Floyd",
          "Forsyth",
          "Franklin",
          "Fulton",
          "Gilmer",
          "Glascock",
          "Glynn",
          "Gordon",
          "Grady",
          "Greene",
          "Gwinnett",
          "Habersham",
          "Hall",
          "Hancock",
          "Haralson",
          "Harris",
          "Hart",
          "Heard",
          "Henry",
          "Houston",
          "Irwin",
          "Jackson",
          "Jasper",
          "Jeff Davis",
          "Jefferson",
          "Jenkins",
          "Johnson",
          "Jones",
          "Lamar",
          "Lanier",
          "Laurens",
          "Lee",
          "Liberty",
          "Lincoln",
          "Long",
          "Lowndes",
          "Lumpkin",
          "Macon",
          "Madison",
          "Marion",
          "McDuffie",
          "McIntosh",
          "Meriwether",
          "Miller",
          "Mitchell",
          "Monroe",
          "Montgomery",
          "Morgan",
          "Murray",
          "Muscogee",
          "Newton",
          "Oconee",
          "Oglethorpe",
          "Paulding",
          "Peach",
          "Pickens",
          "Pierce",
          "Pike",
          "Polk",
          "Pulaski",
          "Putnam",
          "Quitman",
          "Rabun",
          "Randolph",
          "Richmond",
          "Rockdale",
          "Schley",
          "Screven",
          "Seminole",
          "Spalding",
          "Stephens",
          "Stewart",
          "Sumter",
          "Talbot",
          "Taliaferro",
          "Tattnall",
          "Taylor",
          "Telfair",
          "Terrell",
          "Thomas",
          "Tift",
          "Toombs",
          "Towns",
          "Treutlen",
          "Troup",
          "Turner",
          "Twiggs",
          "Union",
          "Unknown",
          "Upson",
          "Walker",
          "Walton",
          "Ware",
          "Warren",
          "Washington",
          "Wayne",
          "Webster",
          "Wheeler",
          "White",
          "Whitfield",
          "Wilcox",
          "Wilkes",
          "Wilkinson",
          "Worth"
          ],
        "Testsite":[]
       
    },
    {
        "State": "Hawaii",
        "Abbreviation": "HI",
        "Counties":[
          "Hawaii",
          "Honolulu",
          "Kauai",
          "Maui"
          ],
        "Testsite":[]
         
    },
    {
        "State": "Idaho",
        "Abbreviation": "ID",
        "Counties":[
          "Ada",
          "Adams",
          "Bannock",
          "Bear Lake",
          "Benewah",
          "Bingham",
          "Blaine",
          "Boise",
          "Bonner",
          "Bonneville",
          "Boundary",
          "Butte",
          "Camas",
          "Canyon",
          "Caribou",
          "Cassia",
          "Clark",
          "Clearwater",
          "Custer",
          "Elmore",
          "Franklin",
          "Fremont",
          "Gem",
          "Gooding",
          "Idaho",
          "Jefferson",
          "Jerome",
          "Kootenai",
          "Latah",
          "Lemhi",
          "Lewis",
          "Lincoln",
          "Madison",
          "Minidoka",
          "Nez Perce",
          "Oneida",
          "Owyhee",
          "Payette",
          "Power",
          "Shoshone",
          "Teton",
          "Twin Falls",
          "Valley",
          "Washington"
          ],
        "Testsite":[]
       
    },
    {
        "State": "Illinois",
        "Abbreviation": "IL",
        "Counties":[
          "Adams",
          "Alexander",
          "Bond",
          "Boone",
          "Brown",
          "Bureau",
          "Calhoun",
          "Carroll",
          "Cass",
          "Champaign",
          "Christian",
          "Clark",
          "Clay",
          "Clinton",
          "Coles",
          "Cook",
          "Crawford",
          "Cumberland",
          "DeKalb",
          "De Witt",
          "Douglas",
          "DuPage",
          "Edgar",
          "Edwards",
          "Effingham",
          "Fayette",
          "Ford",
          "Franklin",
          "Fulton",
          "Gallatin",
          "Greene",
          "Grundy",
          "Hamilton",
          "Hancock",
          "Hardin",
          "Henderson",
          "Henry",
          "Iroquois",
          "Jackson",
          "Jasper",
          "Jefferson",
          "Jersey",
          "Jo Daviess",
          "Johnson",
          "Kane",
          "Kankakee",
          "Kendall",
          "Knox",
          "Lake",
          "LaSalle",
          "Lawrence",
          "Lee",
          "Livingston",
          "Logan",
          "Macon",
          "Macoupin",
          "Madison",
          "Marion",
          "Marshall",
          "Mason",
          "Massac",
          "McDonough",
          "McHenry",
          "McLean",
          "Menard",
          "Mercer",
          "Monroe",
          "Montgomery",
          "Morgan",
          "Moultrie",
          "Ogle",
          "Peoria",
          "Perry",
          "Piatt",
          "Pike",
          "Pope",
          "Pulaski",
          "Putnam",
          "Randolph",
          "Richland",
          "Rock Island",
          "Saline",
          "Sangamon",
          "Schuyler",
          "Scott",
          "Shelby",
          "Stark",
          "St. Clair",
          "Stephenson",
          "Tazewell",
          "Union",
          "Unknown",
          "Vermilion",
          "Wabash",
          "Warren",
          "Washington",
          "Wayne",
          "White",
          "Whiteside",
          "Will",
          "Williamson",
          "Winnebago",
          "Woodford"
          ],
        "Testsite":[]
        
    },
    {
        "State": "Indiana",
        "Abbreviation": "IN",
        "Counties":[
          "Adams",
          "Allen",
          "Bartholomew",
          "Benton",
          "Blackford",
          "Boone",
          "Brown",
          "Carroll",
          "Cass",
          "Clark",
          "Clay",
          "Clinton",
          "Crawford",
          "Daviess",
          "Dearborn",
          "Decatur",
          "DeKalb",
          "Delaware",
          "Dubois",
          "Elkhart",
          "Fayette",
          "Floyd",
          "Fountain",
          "Franklin",
          "Fulton",
          "Gibson",
          "Grant",
          "Greene",
          "Hamilton",
          "Hancock",
          "Harrison",
          "Hendricks",
          "Henry",
          "Howard",
          "Huntington",
          "Jackson",
          "Jasper",
          "Jay",
          "Jefferson",
          "Jennings",
          "Johnson",
          "Knox",
          "Kosciusko",
          "LaGrange",
          "Lake",
          "LaPorte",
          "Lawrence",
          "Madison",
          "Marion",
          "Marshall",
          "Martin",
          "Miami",
          "Monroe",
          "Montgomery",
          "Morgan",
          "Newton",
          "Noble",
          "Ohio",
          "Orange",
          "Owen",
          "Parke",
          "Perry",
          "Pike",
          "Porter",
          "Posey",
          "Pulaski",
          "Putnam",
          "Randolph",
          "Ripley",
          "Rush",
          "Scott",
          "Shelby",
          "Spencer",
          "Starke",
          "Steuben",
          "St. Joseph",
          "Sullivan",
          "Switzerland",
          "Tippecanoe",
          "Tipton",
          "Union",
          "Vanderburgh",
          "Vermillion",
          "Vigo",
          "Wabash",
          "Warren",
          "Warrick",
          "Washington",
          "Wayne",
          "Wells",
          "White",
          "Whitley"
          ],
        "Testsite":[]
       
    },
    {
        "State": "Iowa",
        "Abbreviation": "IA",
        "Counties":[
          "Adair",
          "Adams",
          "Allamakee",
          "Appanoose",
          "Audubon",
          "Benton",
          "Black Hawk",
          "Boone",
          "Bremer",
          "Buchanan",
          "Buena Vista",
          "Butler",
          "Calhoun",
          "Carroll",
          "Cass",
          "Cedar",
          "Cerro Gordo",
          "Cherokee",
          "Chickasaw",
          "Clarke",
          "Clay",
          "Clayton",
          "Clinton",
          "Crawford",
          "Dallas",
          "Davis",
          "Decatur",
          "Delaware",
          "Des Moines",
          "Dickinson",
          "Dubuque",
          "Emmet",
          "Fayette",
          "Floyd",
          "Franklin",
          "Fremont",
          "Greene",
          "Grundy",
          "Guthrie",
          "Hamilton",
          "Hancock",
          "Hardin",
          "Harrison",
          "Henry",
          "Howard",
          "Humboldt",
          "Ida",
          "Iowa",
          "Jackson",
          "Jasper",
          "Jefferson",
          "Johnson",
          "Jones",
          "Keokuk",
          "Kossuth",
          "Lee",
          "Linn",
          "Louisa",
          "Lucas",
          "Lyon",
          "Madison",
          "Mahaska",
          "Marion",
          "Marshall",
          "Mills",
          "Mitchell",
          "Monona",
          "Monroe",
          "Montgomery",
          "Muscatine",
          "O'Brien",
          "Osceola",
          "Page",
          "Palo Alto",
          "Plymouth",
          "Pocahontas",
          "Polk",
          "Pottawattamie",
          "Poweshiek",
          "Ringgold",
          "Sac",
          "Scott",
          "Shelby",
          "Sioux",
          "Story",
          "Tama",
          "Taylor",
          "Union",
          "Unknown",
          "Van Buren",
          "Wapello",
          "Warren",
          "Washington",
          "Wayne",
          "Webster",
          "Winnebago",
          "Winneshiek",
          "Woodbury",
          "Worth",
          "Wright"
          ],
        "Testsite":[]
        
    },
    {
        "State": "Kansas",
        "Abbreviation": "KS",
        "Counties":[
          "Allen",
          "Anderson",
          "Atchison",
          "Barber",
          "Barton",
          "Bourbon",
          "Brown",
          "Butler",
          "Chase",
          "Chautauqua",
          "Cherokee",
          "Cheyenne",
          "Clark",
          "Clay",
          "Cloud",
          "Coffey",
          "Comanche",
          "Cowley",
          "Crawford",
          "Decatur",
          "Dickinson",
          "Doniphan",
          "Douglas",
          "Edwards",
          "Elk",
          "Ellis",
          "Ellsworth",
          "Finney",
          "Ford",
          "Franklin",
          "Geary",
          "Gove",
          "Graham",
          "Grant",
          "Gray",
          "Greeley",
          "Greenwood",
          "Hamilton",
          "Harper",
          "Harvey",
          "Haskell",
          "Hodgeman",
          "Jackson",
          "Jefferson",
          "Jewell",
          "Johnson",
          "Kearny",
          "Kingman",
          "Kiowa",
          "Labette",
          "Lane",
          "Leavenworth",
          "Lincoln",
          "Linn",
          "Logan",
          "Lyon",
          "Marion",
          "Marshall",
          "McPherson",
          "Meade",
          "Miami",
          "Mitchell",
          "Montgomery",
          "Morris",
          "Morton",
          "Nemaha",
          "Neosho",
          "Ness",
          "Norton",
          "Osage",
          "Osborne",
          "Ottawa",
          "Pawnee",
          "Phillips",
          "Pottawatomie",
          "Pratt",
          "Rawlins",
          "Reno",
          "Republic",
          "Rice",
          "Riley",
          "Rooks",
          "Rush",
          "Russell",
          "Saline",
          "Scott",
          "Sedgwick",
          "Seward",
          "Shawnee",
          "Sheridan",
          "Sherman",
          "Smith",
          "Stafford",
          "Stanton",
          "Stevens",
          "Sumner",
          "Thomas",
          "Trego",
          "Unknown",
          "Wabaunsee",
          "Wallace",
          "Washington",
          "Wichita",
          "Wilson",
          "Woodson",
          "Wyandotte"
          ],
        "Testsite":[]
      
    },
    {
        "State": "Kentucky",
        "Abbreviation": "KY",
        "Counties":[
          "Allen",
          "Anderson",
          "Ballard",
          "Barren",
          "Bath",
          "Bell",
          "Boone",
          "Bourbon",
          "Boyd",
          "Boyle",
          "Bracken",
          "Breathitt",
          "Breckinridge",
          "Bullitt",
          "Butler",
          "Caldwell",
          "Calloway",
          "Campbell",
          "Carlisle",
          "Carroll",
          "Carter",
          "Casey",
          "Christian",
          "Clark",
          "Clay",
          "Clinton",
          "Crittenden",
          "Cumberland",
          "Daviess",
          "Edmonson",
          "Elliott",
          "Estill",
          "Fayette",
          "Fleming",
          "Floyd",
          "Franklin",
          "Fulton",
          "Gallatin",
          "Garrard",
          "Grant",
          "Graves",
          "Grayson",
          "Green",
          "Greenup",
          "Hancock",
          "Hardin",
          "Harlan",
          "Harrison",
          "Hart",
          "Henderson",
          "Henry",
          "Hickman",
          "Hopkins",
          "Jackson",
          "Jefferson",
          "Jessamine",
          "Johnson",
          "Kenton",
          "Knott",
          "Knox",
          "Larue",
          "Laurel",
          "Lawrence",
          "Lee",
          "Leslie",
          "Letcher",
          "Lewis",
          "Lincoln",
          "Livingston",
          "Logan",
          "Lyon",
          "Madison",
          "Magoffin",
          "Marion",
          "Marshall",
          "Martin",
          "Mason",
          "McCracken",
          "McCreary",
          "McLean",
          "Meade",
          "Menifee",
          "Mercer",
          "Metcalfe",
          "Monroe",
          "Montgomery",
          "Morgan",
          "Muhlenberg",
          "Nelson",
          "Nicholas",
          "Ohio",
          "Oldham",
          "Owen",
          "Owsley",
          "Pendleton",
          "Perry",
          "Pike",
          "Powell",
          "Pulaski",
          "Robertson",
          "Rockcastle",
          "Rowan",
          "Russell",
          "Scott",
          "Shelby",
          "Simpson",
          "Spencer",
          "Taylor",
          "Todd",
          "Trigg",
          "Trimble",
          "Union",
          "Warren",
          "Washington",
          "Wayne",
          "Webster",
          "Whitley",
          "Wolfe",
          "Woodford"
          ],
        "Testsite":[]
       
    },
    {
        "State": "Louisiana",
        "Abbreviation": "LA",
        "Counties":[
          "Acadia",
          "Allen",
          "Ascension",
          "Assumption",
          "Avoyelles",
          "Beauregard",
          "Bienville",
          "Bossier",
          "Caddo",
          "Calcasieu",
          "Caldwell",
          "Cameron",
          "Catahoula",
          "Claiborne",
          "Concordia",
          "De Soto",
          "East Baton Rouge",
          "East Carroll",
          "East Feliciana",
          "Evangeline",
          "Franklin",
          "Grant",
          "Iberia",
          "Iberville",
          "Jackson",
          "Jefferson",
          "Jefferson Davis",
          "Lafayette",
          "Lafourche",
          "LaSalle",
          "Lincoln",
          "Livingston",
          "Madison",
          "Morehouse",
          "Natchitoches",
          "Orleans",
          "Ouachita",
          "Plaquemines",
          "Pointe Coupee",
          "Rapides",
          "Red River",
          "Richland",
          "Sabine",
          "St. Bernard",
          "St. Charles",
          "St. Helena",
          "St. James",
          "St. John the Baptist",
          "St. Landry",
          "St. Martin",
          "St. Mary",
          "St. Tammany",
          "Tangipahoa",
          "Tensas",
          "Terrebonne",
          "Union",
          "Unknown",
          "Vermilion",
          "Vernon",
          "Washington",
          "Webster",
          "West Baton Rouge",
          "West Carroll",
          "West Feliciana",
          "Winn"
          ],
        "Testsite":[]
      
    },
    {
        "State": "Maine",
        "Abbreviation": "ME",
        "Counties":[
          "Androscoggin",
          "Aroostook",
          "Cumberland",
          "Franklin",
          "Hancock",
          "Kennebec",
          "Knox",
          "Lincoln",
          "Oxford",
          "Penobscot",
          "Piscataquis",
          "Sagadahoc",
          "Somerset",
          "Unknown",
          "Waldo",
          "Washington",
          "York"
          ],
        "Testsite":[]
       
    },
    {
        "State": "Maryland",
        "Abbreviation": "MD",
        "Counties":[
          "Allegany",
          "Anne Arundel",
          "Baltimore",
          "Baltimore city",
          "Calvert",
          "Caroline",
          "Carroll",
          "Cecil",
          "Charles",
          "Dorchester",
          "Frederick",
          "Garrett",
          "Harford",
          "Howard",
          "Kent",
          "Montgomery",
          "Prince George's",
          "Queen Anne's",
          "Somerset",
          "St. Mary's",
          "Talbot",
          "Unknown",
          "Washington",
          "Wicomico",
          "Worcester"
          ],
        "Testsite":[]
       
    },
    {
        "State": "Massachusetts",
        "Abbreviation": "MA",
        "Counties":[
          "Barnstable",
          "Berkshire",
          "Bristol",
          "Dukes",
          "Essex",
          "Franklin",
          "Hampden",
          "Hampshire",
          "Middlesex",
          "Nantucket",
          "Norfolk",
          "Plymouth",
          "Suffolk",
          "Unknown",
          "Worcester"
          ],
        "Testsite":[]
        
    },
    {
        "State": "Michigan",
        "Abbreviation": "MI",
        "Counties":[
          "Alcona",
          "Alger",
          "Allegan",
          "Alpena",
          "Antrim",
          "Arenac",
          "Baraga",
          "Barry",
          "Bay",
          "Benzie",
          "Berrien",
          "Branch",
          "Calhoun",
          "Cass",
          "Charlevoix",
          "Cheboygan",
          "Chippewa",
          "Clare",
          "Clinton",
          "Crawford",
          "Delta",
          "Dickinson",
          "Eaton",
          "Emmet",
          "Genesee",
          "Gladwin",
          "Gogebic",
          "Grand Traverse",
          "Gratiot",
          "Hillsdale",
          "Houghton",
          "Huron",
          "Ingham",
          "Ionia",
          "Iosco",
          "Iron",
          "Isabella",
          "Jackson",
          "Kalamazoo",
          "Kalkaska",
          "Kent",
          "Keweenaw",
          "Lake",
          "Lapeer",
          "Leelanau",
          "Lenawee",
          "Livingston",
          "Luce",
          "Mackinac",
          "Macomb",
          "Manistee",
          "Marquette",
          "Mason",
          "Mecosta",
          "Menominee",
          "Midland",
          "Missaukee",
          "Monroe",
          "Montcalm",
          "Montmorency",
          "Muskegon",
          "Newaygo",
          "Oakland",
          "Oceana",
          "Ogemaw",
          "Ontonagon",
          "Osceola",
          "Oscoda",
          "Otsego",
          "Ottawa",
          "Presque Isle",
          "Roscommon",
          "Saginaw",
          "Sanilac",
          "Schoolcraft",
          "Shiawassee",
          "St. Clair",
          "St. Joseph",
          "Tuscola",
          "Unknown",
          "Van Buren",
          "Washtenaw",
          "Wayne",
          "Wexford"
          ],
        "Testsite":[]
        
    },
    {
        "State": "Minnesota",
        "Abbreviation": "MN",
        "Counties":[
          "Aitkin",
          "Anoka",
          "Becker",
          "Beltrami",
          "Benton",
          "Big Stone",
          "Blue Earth",
          "Brown",
          "Carlton",
          "Carver",
          "Cass",
          "Chippewa",
          "Chisago",
          "Clay",
          "Clearwater",
          "Cook",
          "Cottonwood",
          "Crow Wing",
          "Dakota",
          "Dodge",
          "Douglas",
          "Faribault",
          "Fillmore",
          "Freeborn",
          "Goodhue",
          "Grant",
          "Hennepin",
          "Houston",
          "Hubbard",
          "Isanti",
          "Itasca",
          "Jackson",
          "Kanabec",
          "Kandiyohi",
          "Kittson",
          "Koochiching",
          "Lac qui Parle",
          "Lake",
          "Lake of the Woods",
          "Le Sueur",
          "Lincoln",
          "Lyon",
          "Mahnomen",
          "Marshall",
          "Martin",
          "McLeod",
          "Meeker",
          "Mille Lacs",
          "Morrison",
          "Mower",
          "Murray",
          "Nicollet",
          "Nobles",
          "Norman",
          "Olmsted",
          "Otter Tail",
          "Pennington",
          "Pine",
          "Pipestone",
          "Polk",
          "Pope",
          "Ramsey",
          "Red Lake",
          "Redwood",
          "Renville",
          "Rice",
          "Rock",
          "Roseau",
          "Scott",
          "Sherburne",
          "Sibley",
          "Stearns",
          "Steele",
          "Stevens",
          "St. Louis",
          "Swift",
          "Todd",
          "Traverse",
          "Unknown",
          "Wabasha",
          "Wadena",
          "Waseca",
          "Washington",
          "Watonwan",
          "Wilkin",
          "Winona",
          "Wright",
          "Yellow Medicine"
          ],
        "Testsite":[]
       
    },
    {
        "State": "Mississippi",
        "Abbreviation": "MS",
        "Counties":[
          "Adams",
          "Alcorn",
          "Amite",
          "Attala",
          "Benton",
          "Bolivar",
          "Calhoun",
          "Carroll",
          "Chickasaw",
          "Choctaw",
          "Claiborne",
          "Clarke",
          "Clay",
          "Coahoma",
          "Copiah",
          "Covington",
          "DeSoto",
          "Forrest",
          "Franklin",
          "George",
          "Greene",
          "Grenada",
          "Hancock",
          "Harrison",
          "Hinds",
          "Holmes",
          "Humphreys",
          "Issaquena",
          "Itawamba",
          "Jackson",
          "Jasper",
          "Jefferson",
          "Jefferson Davis",
          "Jones",
          "Kemper",
          "Lafayette",
          "Lamar",
          "Lauderdale",
          "Lawrence",
          "Leake",
          "Lee",
          "Leflore",
          "Lincoln",
          "Lowndes",
          "Madison",
          "Marion",
          "Marshall",
          "Monroe",
          "Montgomery",
          "Neshoba",
          "Newton",
          "Noxubee",
          "Oktibbeha",
          "Panola",
          "Pearl River",
          "Perry",
          "Pike",
          "Pontotoc",
          "Prentiss",
          "Quitman",
          "Rankin",
          "Scott",
          "Sharkey",
          "Simpson",
          "Smith",
          "Stone",
          "Sunflower",
          "Tallahatchie",
          "Tate",
          "Tippah",
          "Tishomingo",
          "Tunica",
          "Union",
          "Walthall",
          "Warren",
          "Washington",
          "Wayne",
          "Webster",
          "Wilkinson",
          "Winston",
          "Yalobusha",
          "Yazoo"
          ],
        "Testsite":[]
       
    },
    {
        "State": "Missouri",
        "Abbreviation": "MO",
        "Counties":[
          "Adair",
          "Andrew",
          "Atchison",
          "Audrain",
          "Barry",
          "Barton",
          "Bates",
          "Benton",
          "Bollinger",
          "Boone",
          "Buchanan",
          "Butler",
          "Caldwell",
          "Callaway",
          "Camden",
          "Cape Girardeau",
          "Carroll",
          "Carter",
          "Cass",
          "Cedar",
          "Chariton",
          "Christian",
          "Clark",
          "Clay",
          "Clinton",
          "Cole",
          "Cooper",
          "Crawford",
          "Dade",
          "Dallas",
          "Daviess",
          "DeKalb",
          "Dent",
          "Douglas",
          "Dunklin",
          "Franklin",
          "Gasconade",
          "Gentry",
          "Greene",
          "Grundy",
          "Harrison",
          "Henry",
          "Hickory",
          "Holt",
          "Howard",
          "Howell",
          "Iron",
          "Jackson",
          "Jasper",
          "Jefferson",
          "Johnson",
          "Joplin",
          "Kansas City",
          "Knox",
          "Laclede",
          "Lafayette",
          "Lawrence",
          "Lewis",
          "Lincoln",
          "Linn",
          "Livingston",
          "Macon",
          "Madison",
          "Maries",
          "Marion",
          "McDonald",
          "Mercer",
          "Miller",
          "Mississippi",
          "Moniteau",
          "Monroe",
          "Montgomery",
          "Morgan",
          "New Madrid",
          "Newton",
          "Nodaway",
          "Oregon",
          "Osage",
          "Ozark",
          "Pemiscot",
          "Perry",
          "Pettis",
          "Phelps",
          "Pike",
          "Platte",
          "Polk",
          "Pulaski",
          "Putnam",
          "Ralls",
          "Randolph",
          "Ray",
          "Reynolds",
          "Ripley",
          "Saline",
          "Schuyler",
          "Scotland",
          "Scott",
          "Shannon",
          "Shelby",
          "St. Charles",
          "St. Clair",
          "Ste. Genevieve",
          "St. Francois",
          "St. Louis",
          "St. Louis city",
          "Stoddard",
          "Stone",
          "Sullivan",
          "Taney",
          "Texas",
          "Vernon",
          "Warren",
          "Washington",
          "Wayne",
          "Webster",
          "Worth",
          "Wright"
          ],
        "Testsite":[]
        
    },
    {
        "State": "Montana",
        "Abbreviation": "MT",
        "Counties":[
          "Beaverhead",
          "Big Horn",
          "Blaine",
          "Broadwater",
          "Carbon",
          "Carter",
          "Cascade",
          "Chouteau",
          "Custer",
          "Daniels",
          "Dawson",
          "Deer Lodge",
          "Fallon",
          "Fergus",
          "Flathead",
          "Gallatin",
          "Garfield",
          "Glacier",
          "Golden Valley",
          "Granite",
          "Hill",
          "Jefferson",
          "Judith Basin",
          "Lake",
          "Lewis and Clark",
          "Liberty",
          "Lincoln",
          "Madison",
          "McCone",
          "Meagher",
          "Mineral",
          "Missoula",
          "Musselshell",
          "Park",
          "Petroleum",
          "Phillips",
          "Pondera",
          "Powder River",
          "Powell",
          "Prairie",
          "Ravalli",
          "Richland",
          "Roosevelt",
          "Rosebud",
          "Sanders",
          "Sheridan",
          "Silver Bow",
          "Stillwater",
          "Sweet Grass",
          "Teton",
          "Toole",
          "Treasure",
          "Valley",
          "Wheatland",
          "Wibaux",
          "Yellowstone"
          ],
        "Testsite":[]
       
    },
    {
        "State": "Nebraska",
        "Abbreviation": "NE",
        "Counties":[
          "Adams",
          "Antelope",
          "Arthur",
          "Banner",
          "Blaine",
          "Boone",
          "Box Butte",
          "Boyd",
          "Brown",
          "Buffalo",
          "Burt",
          "Butler",
          "Cass",
          "Cedar",
          "Chase",
          "Cherry",
          "Cheyenne",
          "Clay",
          "Colfax",
          "Cuming",
          "Custer",
          "Dakota",
          "Dawes",
          "Dawson",
          "Deuel",
          "Dixon",
          "Dodge",
          "Douglas",
          "Dundy",
          "Fillmore",
          "Franklin",
          "Frontier",
          "Furnas",
          "Gage",
          "Garden",
          "Garfield",
          "Gosper",
          "Grant",
          "Greeley",
          "Hall",
          "Hamilton",
          "Harlan",
          "Hayes",
          "Hitchcock",
          "Holt",
          "Hooker",
          "Howard",
          "Jefferson",
          "Johnson",
          "Kearney",
          "Keith",
          "Keya Paha",
          "Kimball",
          "Knox",
          "Lancaster",
          "Lincoln",
          "Logan",
          "Loup",
          "Madison",
          "McPherson",
          "Merrick",
          "Morrill",
          "Nance",
          "Nemaha",
          "Nuckolls",
          "Otoe",
          "Pawnee",
          "Perkins",
          "Phelps",
          "Pierce",
          "Platte",
          "Polk",
          "Red Willow",
          "Richardson",
          "Rock",
          "Saline",
          "Sarpy",
          "Saunders",
          "Scotts Bluff",
          "Seward",
          "Sheridan",
          "Sherman",
          "Sioux",
          "Stanton",
          "Thayer",
          "Thomas",
          "Thurston",
          "Unknown",
          "Valley",
          "Washington",
          "Wayne",
          "Webster",
          "Wheeler",
          "York"
          ],
        "Testsite":[]
        
    },
    {
        "State": "Nevada",
        "Abbreviation": "NV",
        "Counties":[
          "Carson City",
          "Churchill",
          "Clark",
          "Douglas",
          "Elko",
          "Eureka",
          "Humboldt",
          "Lander",
          "Lincoln",
          "Lyon",
          "Mineral",
          "Nye",
          "Pershing",
          "Storey",
          "Washoe",
          "White Pine"
          ],
        "Testsite":[]
        
    },
    {
        "State": "New Hampshire",
        "Abbreviation": "NH",
        "Counties":[
          "Belknap",
          "Carroll",
          "Cheshire",
          "Coos",
          "Grafton",
          "Hillsborough",
          "Merrimack",
          "Rockingham",
          "Strafford",
          "Sullivan"
          ],
        "Testsite":[]
      
    },
    {
        "State": "New Jersey",
        "Abbreviation": "NJ",
        "Counties":[
          "Atlantic",
          "Bergen",
          "Burlington",
          "Camden",
          "Cape May",
          "Cumberland",
          "Essex",
          "Gloucester",
          "Hudson",
          "Hunterdon",
          "Mercer",
          "Middlesex",
          "Monmouth",
          "Morris",
          "Ocean",
          "Passaic",
          "Salem",
          "Somerset",
          "Sussex",
          "Union",
          "Unknown",
          "Warren"
          ],
        "Testsite":[]
       
    },
    {
        "State": "New Mexico",
        "Abbreviation": "NM",
        "Counties":[
          "Bernalillo",
          "Catron",
          "Chaves",
          "Cibola",
          "Colfax",
          "Curry",
          "De Baca",
          "Doña Ana",
          "Eddy",
          "Grant",
          "Guadalupe",
          "Harding",
          "Hidalgo",
          "Lea",
          "Lincoln",
          "Los Alamos",
          "Luna",
          "McKinley",
          "Mora",
          "Otero",
          "Quay",
          "Rio Arriba",
          "Roosevelt",
          "Sandoval",
          "San Juan",
          "San Miguel",
          "Santa Fe",
          "Sierra",
          "Socorro",
          "Taos",
          "Torrance",
          "Union",
          "Valencia"
          ],
        "Testsite":[]
    },
    {
        "State": "New York",
        "Abbreviation": "NY",
        "Counties":[
          "Albany",
          "Allegany",
          "Broome",
          "Cattaraugus",
          "Cayuga",
          "Chautauqua",
          "Chemung",
          "Chenango",
          "Clinton",
          "Columbia",
          "Cortland",
          "Delaware",
          "Dutchess",
          "Erie",
          "Essex",
          "Franklin",
          "Fulton",
          "Genesee",
          "Greene",
          "Hamilton",
          "Herkimer",
          "Jefferson",
          "Lewis",
          "Livingston",
          "Madison",
          "Monroe",
          "Montgomery",
          "Nassau",
          "New York City",
          "Niagara",
          "Oneida",
          "Onondaga",
          "Ontario",
          "Orange",
          "Orleans",
          "Oswego",
          "Otsego",
          "Putnam",
          "Rensselaer",
          "Rockland",
          "Saratoga",
          "Schenectady",
          "Schoharie",
          "Schuyler",
          "Seneca",
          "Steuben",
          "St. Lawrence",
          "Suffolk",
          "Sullivan",
          "Tioga",
          "Tompkins",
          "Ulster",
          "Warren",
          "Washington",
          "Wayne",
          "Westchester",
          "Wyoming",
          "Yates"
          ],
        "Testsite":[]
       
    },
    {
        "State": "North Carolina",
        "Abbreviation": "NC",
        "Counties":[
          "Alamance",
          "Alexander",
          "Alleghany",
          "Anson",
          "Ashe",
          "Avery",
          "Beaufort",
          "Bertie",
          "Bladen",
          "Brunswick",
          "Buncombe",
          "Burke",
          "Cabarrus",
          "Caldwell",
          "Camden",
          "Carteret",
          "Caswell",
          "Catawba",
          "Chatham",
          "Cherokee",
          "Chowan",
          "Clay",
          "Cleveland",
          "Columbus",
          "Craven",
          "Cumberland",
          "Currituck",
          "Dare",
          "Davidson",
          "Davie",
          "Duplin",
          "Durham",
          "Edgecombe",
          "Forsyth",
          "Franklin",
          "Gaston",
          "Gates",
          "Graham",
          "Granville",
          "Greene",
          "Guilford",
          "Halifax",
          "Harnett",
          "Haywood",
          "Henderson",
          "Hertford",
          "Hoke",
          "Hyde",
          "Iredell",
          "Jackson",
          "Johnston",
          "Jones",
          "Lee",
          "Lenoir",
          "Lincoln",
          "Macon",
          "Madison",
          "Martin",
          "McDowell",
          "Mecklenburg",
          "Mitchell",
          "Montgomery",
          "Moore",
          "Nash",
          "New Hanover",
          "Northampton",
          "Onslow",
          "Orange",
          "Pamlico",
          "Pasquotank",
          "Pender",
          "Perquimans",
          "Person",
          "Pitt",
          "Polk",
          "Randolph",
          "Richmond",
          "Robeson",
          "Rockingham",
          "Rowan",
          "Rutherford",
          "Sampson",
          "Scotland",
          "Stanly",
          "Stokes",
          "Surry",
          "Swain",
          "Transylvania",
          "Tyrrell",
          "Union",
          "Vance",
          "Wake",
          "Warren",
          "Washington",
          "Watauga",
          "Wayne",
          "Wilkes",
          "Wilson",
          "Yadkin",
          "Yancey"
          ],
        "Testsite":[]
       
    },
    {
        "State": "North Dakota",
        "Abbreviation": "ND",
        "Counties":[
          "Adams",
          "Barnes",
          "Benson",
          "Billings",
          "Bottineau",
          "Bowman",
          "Burke",
          "Burleigh",
          "Cass",
          "Cavalier",
          "Dickey",
          "Divide",
          "Dunn",
          "Eddy",
          "Emmons",
          "Foster",
          "Golden Valley",
          "Grand Forks",
          "Grant",
          "Griggs",
          "Hettinger",
          "Kidder",
          "LaMoure",
          "Logan",
          "McHenry",
          "McIntosh",
          "McKenzie",
          "McLean",
          "Mercer",
          "Morton",
          "Mountrail",
          "Nelson",
          "Oliver",
          "Pembina",
          "Pierce",
          "Ramsey",
          "Ransom",
          "Renville",
          "Richland",
          "Rolette",
          "Sargent",
          "Sheridan",
          "Sioux",
          "Slope",
          "Stark",
          "Steele",
          "Stutsman",
          "Towner",
          "Traill",
          "Unknown",
          "Walsh",
          "Ward",
          "Wells",
          "Williams"
          ],
        "Testsite":[]
       
    },
    {
        "State": "Ohio",
        "Abbreviation": "OH",
        "Counties":[
          "Adams",
          "Allen",
          "Ashland",
          "Ashtabula",
          "Athens",
          "Auglaize",
          "Belmont",
          "Brown",
          "Butler",
          "Carroll",
          "Champaign",
          "Clark",
          "Clermont",
          "Clinton",
          "Columbiana",
          "Coshocton",
          "Crawford",
          "Cuyahoga",
          "Darke",
          "Defiance",
          "Delaware",
          "Erie",
          "Fairfield",
          "Fayette",
          "Franklin",
          "Fulton",
          "Gallia",
          "Geauga",
          "Greene",
          "Guernsey",
          "Hamilton",
          "Hancock",
          "Hardin",
          "Harrison",
          "Henry",
          "Highland",
          "Hocking",
          "Holmes",
          "Huron",
          "Jackson",
          "Jefferson",
          "Knox",
          "Lake",
          "Lawrence",
          "Licking",
          "Logan",
          "Lorain",
          "Lucas",
          "Madison",
          "Mahoning",
          "Marion",
          "Medina",
          "Meigs",
          "Mercer",
          "Miami",
          "Monroe",
          "Montgomery",
          "Morgan",
          "Morrow",
          "Muskingum",
          "Noble",
          "Ottawa",
          "Paulding",
          "Perry",
          "Pickaway",
          "Pike",
          "Portage",
          "Preble",
          "Putnam",
          "Richland",
          "Ross",
          "Sandusky",
          "Scioto",
          "Seneca",
          "Shelby",
          "Stark",
          "Summit",
          "Trumbull",
          "Tuscarawas",
          "Union",
          "Van Wert",
          "Vinton",
          "Warren",
          "Washington",
          "Wayne",
          "Williams",
          "Wood",
          "Wyandot"
          ],
        "Testsite":[]
       
    },
    {
        "State": "Oklahoma",
        "Abbreviation": "OK",
        "Counties":[
          "Adair",
          "Alfalfa",
          "Atoka",
          "Beaver",
          "Beckham",
          "Blaine",
          "Bryan",
          "Caddo",
          "Canadian",
          "Carter",
          "Cherokee",
          "Choctaw",
          "Cimarron",
          "Cleveland",
          "Coal",
          "Comanche",
          "Cotton",
          "Craig",
          "Creek",
          "Custer",
          "Delaware",
          "Dewey",
          "Ellis",
          "Garfield",
          "Garvin",
          "Grady",
          "Grant",
          "Greer",
          "Harmon",
          "Harper",
          "Haskell",
          "Hughes",
          "Jackson",
          "Jefferson",
          "Johnston",
          "Kay",
          "Kingfisher",
          "Kiowa",
          "Latimer",
          "Le Flore",
          "Lincoln",
          "Logan",
          "Love",
          "Major",
          "Marshall",
          "Mayes",
          "McClain",
          "McCurtain",
          "McIntosh",
          "Murray",
          "Muskogee",
          "Noble",
          "Nowata",
          "Okfuskee",
          "Oklahoma",
          "Okmulgee",
          "Osage",
          "Ottawa",
          "Pawnee",
          "Payne",
          "Pittsburg",
          "Pontotoc",
          "Pottawatomie",
          "Pushmataha",
          "Roger Mills",
          "Rogers",
          "Seminole",
          "Sequoyah",
          "Stephens",
          "Texas",
          "Tillman",
          "Tulsa",
          "Unknown",
          "Wagoner",
          "Washington",
          "Washita",
          "Woods",
          "Woodward"
          ],
        "Testsite":[]
       
    },
    {
        "State": "Oregon",
        "Abbreviation": "OR",
        "Counties":[
          "Baker",
          "Benton",
          "Clackamas",
          "Clatsop",
          "Columbia",
          "Coos",
          "Crook",
          "Curry",
          "Deschutes",
          "Douglas",
          "Gilliam",
          "Grant",
          "Harney",
          "Hood River",
          "Jackson",
          "Jefferson",
          "Josephine",
          "Klamath",
          "Lake",
          "Lane",
          "Lincoln",
          "Linn",
          "Malheur",
          "Marion",
          "Morrow",
          "Multnomah",
          "Polk",
          "Sherman",
          "Tillamook",
          "Umatilla",
          "Union",
          "Wallowa",
          "Wasco",
          "Washington",
          "Wheeler",
          "Yamhill"
          ],
        "Testsite":[]
        
    },
    {
        "State": "Pennsylvania",
        "Abbreviation": "PA",
        "Counties":[
          "Adams",
          "Allegheny",
          "Armstrong",
          "Beaver",
          "Bedford",
          "Berks",
          "Blair",
          "Bradford",
          "Bucks",
          "Butler",
          "Cambria",
          "Cameron",
          "Carbon",
          "Centre",
          "Chester",
          "Clarion",
          "Clearfield",
          "Clinton",
          "Columbia",
          "Crawford",
          "Cumberland",
          "Dauphin",
          "Delaware",
          "Elk",
          "Erie",
          "Fayette",
          "Forest",
          "Franklin",
          "Fulton",
          "Greene",
          "Huntingdon",
          "Indiana",
          "Jefferson",
          "Juniata",
          "Lackawanna",
          "Lancaster",
          "Lawrence",
          "Lebanon",
          "Lehigh",
          "Luzerne",
          "Lycoming",
          "McKean",
          "Mercer",
          "Mifflin",
          "Monroe",
          "Montgomery",
          "Montour",
          "Northampton",
          "Northumberland",
          "Perry",
          "Philadelphia",
          "Pike",
          "Potter",
          "Schuylkill",
          "Snyder",
          "Somerset",
          "Sullivan",
          "Susquehanna",
          "Tioga",
          "Union",
          "Venango",
          "Warren",
          "Washington",
          "Wayne",
          "Westmoreland",
          "Wyoming",
          "York"
          ],
        "Testsite":[]
       
    },
    {
        "State": "Rhode Island",
        "Abbreviation": "RI",
        "Counties":[
          "Bristol",
          "Kent",
          "Newport",
          "Providence",
          "Unknown",
          "Washington"
          ],
        "Testsite":[]
       
    },
    {
        "State": "South Carolina",
        "Abbreviation": "SC",
        "Counties":[
          "Abbeville",
          "Aiken",
          "Allendale",
          "Anderson",
          "Bamberg",
          "Barnwell",
          "Beaufort",
          "Berkeley",
          "Calhoun",
          "Charleston",
          "Cherokee",
          "Chester",
          "Chesterfield",
          "Clarendon",
          "Colleton",
          "Darlington",
          "Dillon",
          "Dorchester",
          "Edgefield",
          "Fairfield",
          "Florence",
          "Georgetown",
          "Greenville",
          "Greenwood",
          "Hampton",
          "Horry",
          "Jasper",
          "Kershaw",
          "Lancaster",
          "Laurens",
          "Lee",
          "Lexington",
          "Marion",
          "Marlboro",
          "McCormick",
          "Newberry",
          "Oconee",
          "Orangeburg",
          "Pickens",
          "Richland",
          "Saluda",
          "Spartanburg",
          "Sumter",
          "Union",
          "Williamsburg",
          "York"
          ],
        "Testsite":[]
       
    },
    {
        "State": "South Dakota",
        "Abbreviation": "SD",
        "Counties":[
          "Aurora",
          "Beadle",
          "Bennett",
          "Bon Homme",
          "Brookings",
          "Brown",
          "Brule",
          "Buffalo",
          "Butte",
          "Campbell",
          "Charles Mix",
          "Clark",
          "Clay",
          "Codington",
          "Corson",
          "Custer",
          "Davison",
          "Day",
          "Deuel",
          "Dewey",
          "Douglas",
          "Edmunds",
          "Fall River",
          "Faulk",
          "Grant",
          "Gregory",
          "Haakon",
          "Hamlin",
          "Hand",
          "Hanson",
          "Harding",
          "Hughes",
          "Hutchinson",
          "Hyde",
          "Jackson",
          "Jerauld",
          "Jones",
          "Kingsbury",
          "Lake",
          "Lawrence",
          "Lincoln",
          "Lyman",
          "Marshall",
          "McCook",
          "McPherson",
          "Meade",
          "Mellette",
          "Miner",
          "Minnehaha",
          "Moody",
          "Oglala Lakota",
          "Pennington",
          "Perkins",
          "Potter",
          "Roberts",
          "Sanborn",
          "Spink",
          "Stanley",
          "Sully",
          "Todd",
          "Tripp",
          "Turner",
          "Union",
          "Walworth",
          "Yankton",
          "Ziebach"
          ],
        "Testsite":[]
       
    },
    {
        "State": "Tennessee",
        "Abbreviation": "TN",
        "Counties":[
          "Anderson",
          "Bedford",
          "Benton",
          "Bledsoe",
          "Blount",
          "Bradley",
          "Campbell",
          "Cannon",
          "Carroll",
          "Carter",
          "Cheatham",
          "Chester",
          "Claiborne",
          "Clay",
          "Cocke",
          "Coffee",
          "Crockett",
          "Cumberland",
          "Davidson",
          "Decatur",
          "DeKalb",
          "Dickson",
          "Dyer",
          "Fayette",
          "Fentress",
          "Franklin",
          "Gibson",
          "Giles",
          "Grainger",
          "Greene",
          "Grundy",
          "Hamblen",
          "Hamilton",
          "Hancock",
          "Hardeman",
          "Hardin",
          "Hawkins",
          "Haywood",
          "Henderson",
          "Henry",
          "Hickman",
          "Houston",
          "Humphreys",
          "Jackson",
          "Jefferson",
          "Johnson",
          "Knox",
          "Lake",
          "Lauderdale",
          "Lawrence",
          "Lewis",
          "Lincoln",
          "Loudon",
          "Macon",
          "Madison",
          "Marion",
          "Marshall",
          "Maury",
          "McMinn",
          "McNairy",
          "Meigs",
          "Monroe",
          "Montgomery",
          "Moore",
          "Morgan",
          "Obion",
          "Overton",
          "Perry",
          "Pickett",
          "Polk",
          "Putnam",
          "Rhea",
          "Roane",
          "Robertson",
          "Rutherford",
          "Scott",
          "Sequatchie",
          "Sevier",
          "Shelby",
          "Smith",
          "Stewart",
          "Sullivan",
          "Sumner",
          "Tipton",
          "Trousdale",
          "Unicoi",
          "Union",
          "Unknown",
          "Van Buren",
          "Warren",
          "Washington",
          "Wayne",
          "Weakley",
          "White",
          "Williamson",
          "Wilson"
          ],
        "Testsite":[]
      
    },
    {
        "State": "Texas",
        "Abbreviation": "TX",
        "Counties":[
          "Anderson",
          "Andrews",
          "Angelina",
          "Aransas",
          "Archer",
          "Armstrong",
          "Atascosa",
          "Austin",
          "Bailey",
          "Bandera",
          "Bastrop",
          "Baylor",
          "Bee",
          "Bell",
          "Bexar",
          "Blanco",
          "Borden",
          "Bosque",
          "Bowie",
          "Brazoria",
          "Brazos",
          "Brewster",
          "Briscoe",
          "Brooks",
          "Brown",
          "Burleson",
          "Burnet",
          "Caldwell",
          "Calhoun",
          "Callahan",
          "Cameron",
          "Camp",
          "Carson",
          "Cass",
          "Castro",
          "Chambers",
          "Cherokee",
          "Childress",
          "Clay",
          "Cochran",
          "Coke",
          "Coleman",
          "Collin",
          "Collingsworth",
          "Colorado",
          "Comal",
          "Comanche",
          "Concho",
          "Cooke",
          "Coryell",
          "Cottle",
          "Crane",
          "Crockett",
          "Crosby",
          "Culberson",
          "Dallam",
          "Dallas",
          "Dawson",
          "Deaf Smith",
          "Delta",
          "Denton",
          "DeWitt",
          "Dickens",
          "Dimmit",
          "Donley",
          "Duval",
          "Eastland",
          "Ector",
          "Edwards",
          "Ellis",
          "El Paso",
          "Erath",
          "Falls",
          "Fannin",
          "Fayette",
          "Fisher",
          "Floyd",
          "Foard",
          "Fort Bend",
          "Franklin",
          "Freestone",
          "Frio",
          "Gaines",
          "Galveston",
          "Garza",
          "Gillespie",
          "Glasscock",
          "Goliad",
          "Gonzales",
          "Gray",
          "Grayson",
          "Gregg",
          "Grimes",
          "Guadalupe",
          "Hale",
          "Hall",
          "Hamilton",
          "Hansford",
          "Hardeman",
          "Hardin",
          "Harris",
          "Harrison",
          "Hartley",
          "Haskell",
          "Hays",
          "Hemphill",
          "Henderson",
          "Hidalgo",
          "Hill",
          "Hockley",
          "Hood",
          "Hopkins",
          "Houston",
          "Howard",
          "Hudspeth",
          "Hunt",
          "Hutchinson",
          "Irion",
          "Jack",
          "Jackson",
          "Jasper",
          "Jeff Davis",
          "Jefferson",
          "Jim Hogg",
          "Jim Wells",
          "Johnson",
          "Jones",
          "Karnes",
          "Kaufman",
          "Kendall",
          "Kenedy",
          "Kent",
          "Kerr",
          "Kimble",
          "King",
          "Kinney",
          "Kleberg",
          "Knox",
          "Lamar",
          "Lamb",
          "Lampasas",
          "La Salle",
          "Lavaca",
          "Lee",
          "Leon",
          "Liberty",
          "Limestone",
          "Lipscomb",
          "Live Oak",
          "Llano",
          "Lubbock",
          "Lynn",
          "Madison",
          "Marion",
          "Martin",
          "Mason",
          "Matagorda",
          "Maverick",
          "McCulloch",
          "McLennan",
          "McMullen",
          "Medina",
          "Menard",
          "Midland",
          "Milam",
          "Mills",
          "Mitchell",
          "Montague",
          "Montgomery",
          "Moore",
          "Morris",
          "Motley",
          "Nacogdoches",
          "Navarro",
          "Newton",
          "Nolan",
          "Nueces",
          "Ochiltree",
          "Oldham",
          "Orange",
          "Palo Pinto",
          "Panola",
          "Parker",
          "Parmer",
          "Pecos",
          "Polk",
          "Potter",
          "Presidio",
          "Rains",
          "Randall",
          "Reagan",
          "Real",
          "Red River",
          "Reeves",
          "Refugio",
          "Roberts",
          "Robertson",
          "Rockwall",
          "Runnels",
          "Rusk",
          "Sabine",
          "San Augustine",
          "San Jacinto",
          "San Patricio",
          "San Saba",
          "Schleicher",
          "Scurry",
          "Shackelford",
          "Shelby",
          "Sherman",
          "Smith",
          "Somervell",
          "Starr",
          "Stephens",
          "Sterling",
          "Stonewall",
          "Sutton",
          "Swisher",
          "Tarrant",
          "Taylor",
          "Terrell",
          "Terry",
          "Throckmorton",
          "Titus",
          "Tom Green",
          "Travis",
          "Trinity",
          "Tyler",
          "Upshur",
          "Upton",
          "Uvalde",
          "Val Verde",
          "Van Zandt",
          "Victoria",
          "Walker",
          "Waller",
          "Ward",
          "Washington",
          "Webb",
          "Wharton",
          "Wheeler",
          "Wichita",
          "Wilbarger",
          "Willacy",
          "Williamson",
          "Wilson",
          "Winkler",
          "Wise",
          "Wood",
          "Yoakum",
          "Young",
          "Zapata",
          "Zavala"
          ],
        "Testsite":[]
     
    },
    {
        "State": "Utah",
        "Abbreviation": "UT",
        "Counties":[
          "Beaver",
          "Box Elder",
          "Cache",
          "Carbon",
          "Daggett",
          "Davis",
          "Duchesne",
          "Emery",
          "Garfield",
          "Grand",
          "Iron",
          "Juab",
          "Kane",
          "Millard",
          "Morgan",
          "Piute",
          "Rich",
          "Salt Lake",
          "San Juan",
          "Sanpete",
          "Sevier",
          "Summit",
          "Tooele",
          "Uintah",
          "Unknown",
          "Utah",
          "Wasatch",
          "Washington",
          "Wayne",
          "Weber"
          ],
        "Testsite":[]
      
    },
    {
        "State": "Vermont",
        "Abbreviation": "VT",
        "Counties":[
          "Addison",
          "Bennington",
          "Caledonia",
          "Chittenden",
          "Essex",
          "Franklin",
          "Grand Isle",
          "Lamoille",
          "Orange",
          "Orleans",
          "Rutland",
          "Unknown",
          "Washington",
          "Windham",
          "Windsor"
          ],
        "Testsite":[]
      
    },
    {
        "State": "Virginia",
        "Abbreviation": "VA",
        "Counties":[
          "Accomack",
          "Albemarle",
          "Alexandria city",
          "Alleghany",
          "Amelia",
          "Amherst",
          "Appomattox",
          "Arlington",
          "Augusta",
          "Bath",
          "Bedford",
          "Bland",
          "Botetourt",
          "Bristol city",
          "Brunswick",
          "Buchanan",
          "Buckingham",
          "Buena Vista city",
          "Campbell",
          "Caroline",
          "Carroll",
          "Charles City",
          "Charlotte",
          "Charlottesville city",
          "Chesapeake city",
          "Chesterfield",
          "Clarke",
          "Colonial Heights city",
          "Covington city",
          "Craig",
          "Culpeper",
          "Cumberland",
          "Danville city",
          "Dickenson",
          "Dinwiddie",
          "Emporia city",
          "Essex",
          "Fairfax",
          "Fairfax city",
          "Falls Church city",
          "Fauquier",
          "Floyd",
          "Fluvanna",
          "Franklin",
          "Franklin city",
          "Frederick",
          "Fredericksburg city",
          "Galax city",
          "Giles",
          "Gloucester",
          "Goochland",
          "Grayson",
          "Greene",
          "Greensville",
          "Halifax",
          "Hampton city",
          "Hanover",
          "Harrisonburg city",
          "Henrico",
          "Henry",
          "Highland",
          "Hopewell city",
          "Isle of Wight",
          "James City",
          "King and Queen",
          "King George",
          "King William",
          "Lancaster",
          "Lee",
          "Lexington city",
          "Loudoun",
          "Louisa",
          "Lunenburg",
          "Lynchburg city",
          "Madison",
          "Manassas city",
          "Manassas Park city",
          "Martinsville city",
          "Mathews",
          "Mecklenburg",
          "Middlesex",
          "Montgomery",
          "Nelson",
          "New Kent",
          "Newport News city",
          "Norfolk city",
          "Northampton",
          "Northumberland",
          "Norton city",
          "Nottoway",
          "Orange",
          "Page",
          "Patrick",
          "Petersburg city",
          "Pittsylvania",
          "Poquoson city",
          "Portsmouth city",
          "Powhatan",
          "Prince Edward",
          "Prince George",
          "Prince William",
          "Pulaski",
          "Radford city",
          "Rappahannock",
          "Richmond",
          "Richmond city",
          "Roanoke",
          "Roanoke city",
          "Rockbridge",
          "Rockingham",
          "Russell",
          "Salem city",
          "Scott",
          "Shenandoah",
          "Smyth",
          "Southampton",
          "Spotsylvania",
          "Stafford",
          "Staunton city",
          "Suffolk city",
          "Surry",
          "Sussex",
          "Tazewell",
          "Virginia Beach city",
          "Warren",
          "Washington",
          "Waynesboro city",
          "Westmoreland",
          "Williamsburg city",
          "Winchester city",
          "Wise",
          "Wythe",
          "York"
          ],
        "Testsite":[]
      
    },
    {
        "State": "Washington",
        "Abbreviation": "WA",
        "Counties":[
          "Adams",
          "Asotin",
          "Benton",
          "Chelan",
          "Clallam",
          "Clark",
          "Columbia",
          "Cowlitz",
          "Douglas",
          "Ferry",
          "Franklin",
          "Garfield",
          "Grant",
          "Grays Harbor",
          "Island",
          "Jefferson",
          "King",
          "Kitsap",
          "Kittitas",
          "Klickitat",
          "Lewis",
          "Lincoln",
          "Mason",
          "Okanogan",
          "Pacific",
          "Pend Oreille",
          "Pierce",
          "San Juan",
          "Skagit",
          "Skamania",
          "Snohomish",
          "Spokane",
          "Stevens",
          "Thurston",
          "Unknown",
          "Wahkiakum",
          "Walla Walla",
          "Whatcom",
          "Whitman",
          "Yakima"
          ],
        "Testsite":[]
        
    },
    {
        "State": "West Virginia",
        "Abbreviation": "WV",
        "Counties":[
          "Barbour",
          "Berkeley",
          "Boone",
          "Braxton",
          "Brooke",
          "Cabell",
          "Calhoun",
          "Clay",
          "Doddridge",
          "Fayette",
          "Gilmer",
          "Grant",
          "Greenbrier",
          "Hampshire",
          "Hancock",
          "Hardy",
          "Harrison",
          "Jackson",
          "Jefferson",
          "Kanawha",
          "Lewis",
          "Lincoln",
          "Logan",
          "Marion",
          "Marshall",
          "Mason",
          "McDowell",
          "Mercer",
          "Mineral",
          "Mingo",
          "Monongalia",
          "Monroe",
          "Morgan",
          "Nicholas",
          "Ohio",
          "Pendleton",
          "Pleasants",
          "Pocahontas",
          "Preston",
          "Putnam",
          "Raleigh",
          "Randolph",
          "Ritchie",
          "Roane",
          "Summers",
          "Taylor",
          "Tucker",
          "Tyler",
          "Upshur",
          "Wayne",
          "Webster",
          "Wetzel",
          "Wirt",
          "Wood",
          "Wyoming"
          ],
        "Testsite":[]
        
    },
    {
        "State": "Wisconsin",
        "Abbreviation": "WI",
        "Counties":[
          "Adams",
          "Ashland",
          "Barron",
          "Bayfield",
          "Brown",
          "Buffalo",
          "Burnett",
          "Calumet",
          "Chippewa",
          "Clark",
          "Columbia",
          "Crawford",
          "Dane",
          "Dodge",
          "Door",
          "Douglas",
          "Dunn",
          "Eau Claire",
          "Florence",
          "Fond du Lac",
          "Forest",
          "Grant",
          "Green",
          "Green Lake",
          "Iowa",
          "Iron",
          "Jackson",
          "Jefferson",
          "Juneau",
          "Kenosha",
          "Kewaunee",
          "La Crosse",
          "Lafayette",
          "Langlade",
          "Lincoln",
          "Manitowoc",
          "Marathon",
          "Marinette",
          "Marquette",
          "Menominee",
          "Milwaukee",
          "Monroe",
          "Oconto",
          "Oneida",
          "Outagamie",
          "Ozaukee",
          "Pepin",
          "Pierce",
          "Polk",
          "Portage",
          "Price",
          "Racine",
          "Richland",
          "Rock",
          "Rusk",
          "Sauk",
          "Sawyer",
          "Shawano",
          "Sheboygan",
          "St. Croix",
          "Taylor",
          "Trempealeau",
          "Vernon",
          "Vilas",
          "Walworth",
          "Washburn",
          "Washington",
          "Waukesha",
          "Waupaca",
          "Waushara",
          "Winnebago",
          "Wood"
          ],
        "Testsite":[]
       
    },
    {
        "State": "Wyoming",
        "Abbreviation": "WY",
        "Counties":[
          "Albany",
          "Big Horn",
          "Campbell",
          "Carbon",
          "Converse",
          "Crook",
          "Fremont",
          "Goshen",
          "Hot Springs",
          "Johnson",
          "Laramie",
          "Lincoln",
          "Natrona",
          "Niobrara",
          "Park",
          "Platte",
          "Sheridan",
          "Sublette",
          "Sweetwater",
          "Teton",
          "Uinta",
          "Washakie",
          "Weston"
          ],
        "Testsite":[]
      
    }

]